"Name","ID","State","Network","County","Elevation_ft","Latitude","Longitude","HUC","Date_of_Data","Date_Report_Created","Value_inches","Percent_NRCS_1991_2020_Average","Percent_NRCS_1991_2020_Median","Percent_of_POR_Average","Percent_of_POR_Median","Percent_of_Water_Year_Peak","Percent_NRCS_1991_2020_Average_Water_Year_Peak","Percent_NRCS_1991_2020_Median_Water_Year_Peak","Percent_of_POR_Average_Water_Year_Peak","Percent_of_POR_Median_Water_Year_Peak","POR_Median_Departure_inches","Percentile_POR","Maximum_Rank_POR","Minimum_Rank_POR","Records_POR","NRCS_1991_2020_Average_inches","NRCS_1991_2020_Median_inches","POR_Average_inches","POR_Median_inches","Minimum_POR_inches","Maximum_POR_inches","Year_of_Minimum_POR","Year_of_Maximum_POR","Number_of_Observations_POR"
"Adin Mtn","301	","California","SNOTEL","Modoc","6190","41.23583","-120.79192","180200021403	","February 14, 2022, end of day ","2-15-2022, 02:15 PM MST","9.6","100","101","99","100","95","71","75","70","72","0","54","18","20",,"9.6","9.5","9.7","9.6","0","18.7","2015","1995","38"
"Agnew Pass","AGP	","California","Cooperator Snow Sensors","Madera","9450","37.724","-119.143","180400060401	","February 14, 2022, end of day ","2-15-2022, 02:15 PM MST",,,,,,,,,,,,,,,,"19.7","17.3","19.5","17","1.3","50.1","1991","2017","26"
"Agua Canyon","907	","Utah","SNOTEL","Kane","8900","37.52217","-112.27118","160300020301	","February 14, 2022, end of day ","2-15-2022, 02:15 PM MST","5.6","82","90","84","97","95","57","62","58","62","-0.2","44","16","13",,"6.8","6.2","6.7","5.8","0.8","17.9","2018","2005","28"
"Aiken Lake","4A30P	","British Columbia","Cooperator Snow Sensors","	","3481","56.43333","-125.73333","	","February 14, 2022, end of day ","2-15-2022, 02:15 PM MST",,,,,,,,,,,,,,,,"8.3","8.2","8.2","8.2","0","13.6","2002","1992","32"
"Albro Lake","916	","Montana","SNOTEL","Madison","8300","45.59723","-111.95902","100200050701	","February 14, 2022, end of day ","2-15-2022, 02:15 PM MST","11.7","95","103","96","103","100","52","54","53","54","0.3","56","12","14",,"12.3","11.4","12.2","11.4","7.8","21.9","2005","1997","26"
"Alexander Lake","1267	","Alaska","SNOTEL","Matanuska-Susitna","160","61.74967","-150.88967","190205051106	","February 14, 2022, end of day ","2-15-2022, 02:15 PM MST","6.9",,,"99","101","100",,,"78","79","0.1","57","4","5",,,,"7","6.8","4","10.8","2015","2020","8"
"Alpha","ALP	","California","Cooperator Snow Sensors","El Dorado","7600","38.805","-120.215","180201290204	","February 14, 2022, end of day ","2-15-2022, 02:15 PM MST","10.9","47","51","45","43","56","31","32","29","31","-14.3","13","48","8",,"23","21.2","24.4","25.2","0.5","52.9","2015","1983","55"
"Alpine Meadows","908	","Washington","SNOTEL","King","3500","47.77957","-121.69847","171100100501	","February 14, 2022, end of day ","2-15-2022, 02:15 PM MST","31.1","95","90","95","90","99","56","53","55","52","-3.3","41","17","12",,"32.8","34.4","32.9","34.4","0","65.9","2015","2008","28"
"American Creek","1189	","Alaska","SNOTEL","Southeast Fairbanks","1050","64.78969","-141.23376","190705050504	","February 14, 2022, end of day ","2-15-2022, 02:15 PM MST","5",,,"156","172","100",,,"125","135","2.1","100","1","11","Highest",,,"3.2","2.9","2.1","5","2018","2022","11"
"Anchor River Divide","1062	","Alaska","SNOTEL","Kenai Peninsula","1653","59.85972","-151.315","190203010701	","February 14, 2022, end of day ","2-15-2022, 02:15 PM MST","7.8","84","82","83","87","100","61","63","58","60","-1.2","27","23","9",,"9.3","9.5","9.4","9","5.4","15.1","2015","2021","31"
"Anchorage Hillside","1070	","Alaska","SNOTEL","Anchorage","2080","61.11483","-149.66683","190204010601	","February 14, 2022, end of day ","2-15-2022, 02:15 PM MST","9.7","143","154","135","135","100","97","92","95","92","2.5","88","3","15",,"6.8","6.3","7.2","7.2","3.1","16.4","2014","2012","17"
"Aneroid Lake #2","302	","Oregon","SNOTEL","Wallowa","7400","45.21328","-117.19258","170601050101	","February 14, 2022, end of day ","2-15-2022, 02:15 PM MST","9.8","63","69","63","64","100","36","38","36","38","-5.4","5","38","2","2nd Lowest","15.5","14.3","15.6","15.2","9","34.7","2005","1997","40"
"Annie Springs","1000	","Oregon","SNOTEL","Klamath","6010","42.87007","-122.16518","180102030101	","February 14, 2022, end of day ","2-15-2022, 02:15 PM MST","16.9","65","66","66","66","100","42","42","42","42","-8.7","14","19","4",,"26.2","25.6","25.8","25.6","10.3","49.6","2014","2006","22"
"Apishapa","303	","Colorado","SNOTEL","Huerfano","10000","37.33062","-105.06749","110200060406	","February 14, 2022, end of day ","2-15-2022, 02:15 PM MST","4.6","81","82","82","85","98","57","61","54","57","-0.8","37","27","15",,"5.7","5.6","5.6","5.4","0.4","13.7","1981","2008","42"
"Arapaho Ridge","1030	","Colorado","SNOTEL","Grand","10960","40.35098","-106.35098","140100010604	","February 14, 2022, end of day ","2-15-2022, 02:15 PM MST","15.2","96","96","96","97","99","60","60","61","61","-0.4","42","12","9",,"15.9","15.9","15.8","15.6","10.7","21.7","2003","2011","20"
"Arbuckle Mtn","304	","Oregon","SNOTEL","Morrow","5770","45.19085","-119.25392","170702020604	","February 14, 2022, end of day ","2-15-2022, 02:15 PM MST","11.1","87","90","81","85","99","61","62","55","56","-1.9","33","30","15",,"12.8","12.4","13.7","13","6.6","27.1","1981","1983","44"
"Atlanta Summit","306	","Idaho","SNOTEL","Elmore","7580","43.7569","-115.23907","170501110204	","February 14, 2022, end of day ","2-15-2022, 02:15 PM MST","18.4","86","90","88","90","100","60","63","61","66","-2","32","28","14",,"21.3","20.5","20.9","20.4","10.7","41.8","1991","1997","41"
"Azure","1E08P	","British Columbia","Cooperator Snow Sensors","	","5331","52.58333","-119.71667","	","February 14, 2022, end of day ","2-15-2022, 02:15 PM MST",,,,,,,,,,,,,,,,"34.2","35.4","34.3","35.8","21","47.7","2001","1999","22"
"Badger Pass","307	","Montana","SNOTEL","Pondera","6900","48.13088","-113.02317","100302010201	","February 14, 2022, end of day ","2-15-2022, 02:15 PM MST","19.5","86","85","86","86","100","53","57","53","56","-3.3","33","29","14",,"22.8","22.9","22.8","22.8","12.3","35.9","2001","1990","43"
"Baker Butte","308	","Arizona","SNOTEL","Gila","7300","34.4566","-111.40643","150602030206	","February 14, 2022, end of day ","2-15-2022, 02:15 PM MST","0.4","10","12","9","12","16","6","7","6","6","-3","17","35","8",,"4","3.2","4.3","3.4","0","13.7","2006, 2014, 2015, more","2010","42"
"Baker Butte Smt","1140	","Arizona","SNOTEL","Coconino","7700","34.45547","-111.38272","150602030103	","February 14, 2022, end of day ","2-15-2022, 02:15 PM MST","5.3","61","58","63","58","91","41","41","41","43","-3.8","25","10","4",,"8.7","9.1","8.4","9.1","2.2","19.5","2015","2010","13"
"Bald Mtn.","309	","Wyoming","SNOTEL","Big Horn","9380","44.8007","-107.84442","100800100501	","February 14, 2022, end of day ","2-15-2022, 02:15 PM MST","11.2","85","85","84","85","100","49","50","48","50","-1.9","26","33","11",,"13.2","13.1","13.3","13.1","8.3","20.9","2016","1990","44"
"Baldy","310	","Arizona","SNOTEL","Apache","9125","33.97883","-109.50344","150200010203	","February 14, 2022, end of day ","2-15-2022, 02:15 PM MST","4.5","74","75","70","74","100","56","58","54","58","-1.6","29","30","13",,"6.1","6","6.4","6.1","0","14.6","2000, 2006","1985","42"
"Banfield Mountain","311	","Montana","SNOTEL","Lincoln","5600","48.5712","-115.44573","170101011202	","February 14, 2022, end of day ","2-15-2022, 02:15 PM MST","12.5","97","102","90","99","100","67","71","63","69","-0.1","49","28","25",,"12.9","12.3","13.9","12.6","4.7","25","1977","1974","54"
"Banner Summit","312	","Idaho","SNOTEL","Boise","7040","44.30342","-115.23447","170501200202	","February 14, 2022, end of day ","2-15-2022, 02:15 PM MST","18.5","101","106","101","106","100","70","68","70","69","1.1","56","19","24",,"18.3","17.4","18.3","17.4","8.6","32.5","2001","1997","42"
"Bar M","1212	","Arizona","SNOTEL","Coconino","6393","34.86136","-111.60503","150602020601	","February 14, 2022, end of day ","2-15-2022, 02:15 PM MST","0",,,"0","0","0",,,"0","0","-0.2","44","6","1","Lowest",,,"0.7","0.2","0","2.3","2017, 2020, 2022, more","2021","10"
"Barker Lakes","313	","Montana","SNOTEL","Deer Lodge","8250","46.09713","-113.13038","170102010304	","February 14, 2022, end of day ","2-15-2022, 02:15 PM MST","9.4","99","100","99","102","100","52","53","53","56","0.2","55","20","24",,"9.5","9.4","9.5","9.2","6.3","15.2","2005","2018","43"
"Barkerville","1A03P	","British Columbia","Cooperator Snow Sensors","	","4865","53.05","-121.48333","	","February 14, 2022, end of day ","2-15-2022, 02:15 PM MST",,,,,,,,,,,,,,,,"10","9.4","10.3","9.8","5","16.3","2003","1999","44"
"Barnes Creek","2B06P	","British Columbia","Cooperator Snow Sensors","	","5233","50.06667","-118.35","170200010305	","February 14, 2022, end of day ","2-15-2022, 02:15 PM MST",,,,,,,,,,,,,,,,"16","15.5","16.1","15.6","7.8","24.2","2017","1997","28"
"Base Camp","314	","Wyoming","SNOTEL","Teton","7060","43.94019","-110.44544","170401010304	","February 14, 2022, end of day ","2-15-2022, 02:15 PM MST","10.4","77","75","78","79","99","57","58","58","63","-2.8","20","34","9",,"13.5","13.8","13.3","13.2","6.6","25.4","2001","1997","42"
"Basin Creek","315	","Montana","SNOTEL","Silver Bow","7180","45.79737","-112.52047","170102010201	","February 14, 2022, end of day ","2-15-2022, 02:15 PM MST","3.6","65","69","68","69","100","36","36","35","36","-1.6","15","36","5",,"5.5","5.2","5.3","5.2","2.4","8.5","1991","1995, 2014","42"
"Bateman","316	","New Mexico","SNOTEL","Rio Arriba","9300","36.51174","-106.31543","130201020901	","February 14, 2022, end of day ","2-15-2022, 02:15 PM MST","7.9","96","101","92","92","100","68","71","62","65","-0.7","43","25","19",,"8.2","7.8","8.6","8.6","2.6","16.8","2006","1984","43"
"Battle Mountain","317	","Wyoming","SNOTEL","Carbon","7440","41.05413","-107.26609","140500030109	","February 14, 2022, end of day ","2-15-2022, 02:15 PM MST","6.2","70","70","73","76","100","50","49","52","51","-2","17","31","7",,"8.8","8.8","8.5","8.2","4.2","15.2","1987, 2018","1997","37"
"Beach Meadows","BCH	","California","Cooperator Snow Sensors","Tulare","7650","36.127","-118.293","180300010403	","February 14, 2022, end of day ","2-15-2022, 02:15 PM MST","1.6","23","31","22","33","24","14","15","13","15","-3.3","17","31","7",,"7.1","5.1","7.2","4.9","0","22.8","1991, 1992, 2018","1983","37"
"Beagle Springs","318	","Montana","SNOTEL","Beaverhead","8850","44.47147","-112.98191","100200010501	","February 14, 2022, end of day ","2-15-2022, 02:15 PM MST","6.4","102","107","107","110","98","58","57","59","59","0.6","67","15","30",,"6.3","6","6","5.8","3.1","10","1981","1997, 1999","44"
"Bear Basin","319	","Idaho","SNOTEL","Adams","5350","44.95222","-116.14293","170602100104	","February 14, 2022, end of day ","2-15-2022, 02:15 PM MST","9.5","74","79","75","81","100","54","53","53","53","-2.3","22","33","9",,"12.8","12","12.7","11.8","5.5","21.4","1991","1997","42"
"Bear Canyon","320	","Idaho","SNOTEL","Custer","7900","43.74367","-113.93797","170402180101	","February 14, 2022, end of day ","2-15-2022, 02:15 PM MST","10.4","105","113","104","111","98","67","73","65","71","1","56","19","24",,"9.9","9.2","10","9.4","3.3","21.2","1991","1997","42"
"Bear Creek","321	","Nevada","SNOTEL","Elko","8040","41.83384","-115.45278","170501020301	","February 14, 2022, end of day ","2-15-2022, 02:15 PM MST","8.8","66","64","65","64","100","42","43","40","42","-5","14","37","6",,"13.3","13.8","13.6","13.8","6.9","25.3","1987","1984","43"
"Bear Grass","1166	","Oregon","SNOTEL","Linn","4720","44.3253","-122.0938","170900040203	","February 14, 2022, end of day ","2-15-2022, 02:15 PM MST","35.1",,,"122","109","100",,,"74","71","2.9","70","4","8",,,,"28.8","32.2","0","47.4","2015","2017","11"
"Bear Lake","322	","Colorado","SNOTEL","Larimer","9500","40.31176","-105.6467","101900060201	","February 14, 2022, end of day ","2-15-2022, 02:15 PM MST","12.5","106","110","110","115","99","60","63","60","63","1.6","68","14","29",,"11.8","11.4","11.4","10.9","5.8","20.4","2002","2017","42"
"Bear Mountain","323	","Idaho","SNOTEL","Bonner","5400","48.30577","-116.07448","170102131202	","February 14, 2022, end of day ","2-15-2022, 02:15 PM MST","33.3","86","88","86","91","100","56","57","57","59","-3.3","35","27","15",,"38.8","37.8","38.7","36.6","17.9","67","2001","1999","41"
"Bear River","1061	","Colorado","SNOTEL","Routt","9080","40.06153","-107.00955","140500010102	","February 14, 2022, end of day ","2-15-2022, 02:15 PM MST","6.2","78","78","79","81","100","52","52","52","52","-1.5","18","15","4",,"7.9","8","7.8","7.7","5.6","10.2","2012","2011","18"
"Bear River RS","992	","Utah","SNOTEL","Summit","8777","40.8852","-110.8277","160101010106	","February 14, 2022, end of day ","2-15-2022, 02:15 PM MST","6.4","90","100","94","103","100","63","64","63","69","0.2","55","6","7",,"7.1","6.4","6.8","6.2","4.6","11","2012","2011","12"
"Bear Saddle","324	","Idaho","SNOTEL","Washington","6180","44.60533","-116.98097","170501241001	","February 14, 2022, end of day ","2-15-2022, 02:15 PM MST","12.9","78","78","76","76","100","57","57","57","55","-4","32","28","13",,"16.6","16.6","17","16.9","8.7","27.2","1991, 2014","1983","41"
"Bear Trap Meadow","325	","Wyoming","SNOTEL","Johnson","8200","43.88743","-107.06135","100902010205	","February 14, 2022, end of day ","2-15-2022, 02:15 PM MST","4","83","91","93","100","100","53","54","57","58","0","54","20","22",,"4.8","4.4","4.3","4","2.3","7.4","1981, 1987","2014, 2020","42"
"Beartooth Lake","326	","Wyoming","SNOTEL","Park","9360","44.94307","-109.56743","100700060206	","February 14, 2022, end of day ","2-15-2022, 02:15 PM MST","11.5","68","71","70","72","100","43","46","44","46","-4.4","10","38","5",,"16.9","16.3","16.5","15.9","8.7","30.5","2001","2018","42"
"Beartown","327	","Colorado","SNOTEL","Mineral","11600","37.71409","-107.51212","130100010104	","February 14, 2022, end of day ","2-15-2022, 02:15 PM MST","11.5","75","78","73","74","100","47","50","45","49","-4.1","26","30","11",,"15.4","14.7","15.7","15.6","5.5","31.1","1990","1997","40"
"Beaver Ck Village","1041	","Colorado","SNOTEL","Eagle","8500","39.59917","-106.51142","140100030301	","February 14, 2022, end of day ","2-15-2022, 02:15 PM MST","6.7","80","80","82","82","100","54","57","55","57","-1.5","28","14","6",,"8.4","8.4","8.2","8.2","5.2","11.4","2018","2009","19"
"Beaver Creek","328	","Montana","SNOTEL","Gallatin","7850","44.94966","-111.35852","100200070402	","February 14, 2022, end of day ","2-15-2022, 02:15 PM MST","10","78","78","78","78","100","50","50","49","49","-2.8","24","43","14",,"12.9","12.8","12.9","12.8","7","25.7","1977","1997","56"
"Beaver Dams","329	","Utah","SNOTEL","Sanpete","7990","39.13683","-111.55813","160300040402	","February 14, 2022, end of day ","2-15-2022, 02:15 PM MST","5.8","82","88","77","87","100","60","66","55","59","-0.9","32","29","11",,"7.1","6.6","7.5","6.7","3.7","14.8","1981, 2018","1984","42"
"Beaver Divide","330	","Utah","SNOTEL","Summit","8280","40.61233","-111.09782","160202030105	","February 14, 2022, end of day ","2-15-2022, 02:15 PM MST","4.8","55","56","55","59","87","41","44","40","44","-3.4","12","39","5",,"8.7","8.5","8.7","8.2","4.2","16.8","1992, 2018","2017","44"
"Beaver Head","902	","Arizona","SNOTEL","Greenlee","7990","33.69144","-109.21657","150601010107	","February 14, 2022, end of day ","2-15-2022, 02:15 PM MST","2.2","85","122","88","122","92","52","67","54","67","0.4","59","12","17",,"2.6","1.8","2.5","1.8","0","10.6","1999, 2000, 2018","2010","28"
"Beaver Pass","990	","Washington","SNOTEL","Whatcom","3630","48.8793","-121.2555","171100050605	","February 14, 2022, end of day ","2-15-2022, 02:15 PM MST","30.4","108","103","106","101","100","76","69","75","68","0.3","55","10","12",,"28.2","29.6","28.7","30.1","11.4","39.7","2005","2007","21"
"Beaver Reservoir","331	","Oregon","SNOTEL","Union","5150","45.14532","-118.219","170601040301	","February 14, 2022, end of day ","2-15-2022, 02:15 PM MST","7.9","101","104","100","101","100","68","69","68","69","0.1","51","21","22",,"7.8","7.6","7.9","7.8","1.9","14.7","1981","1998","42"
"Beaver Spring","1143	","Arizona","SNOTEL","Apache","9200","36.32678","-109.05711","140802040401	","February 14, 2022, end of day ","2-15-2022, 02:15 PM MST","6","85","73","88","97","90","64","70","66","75","-0.2","42","8","6",,"7.1","8.2","6.8","6.2","0.4","12.5","2018","2010","13"
"Ben Lomond Peak","332	","Utah","SNOTEL","Weber","7689","41.37603","-111.94405","160201020302	","February 14, 2022, end of day ","2-15-2022, 02:15 PM MST","13.3","49","53","48","53","96","35","37","33","36","-11.7","7","41","4",,"27","24.9","27.5","25","10.6","62.7","1992","1997","44"
"Ben Lomond Trail","333	","Utah","SNOTEL","Weber","5972","41.38291","-111.92103","160201020302	","February 14, 2022, end of day ","2-15-2022, 02:15 PM MST","9.8","66","70","64","70","100","51","53","49","52","-4.3","24","32","11",,"14.9","14.1","15.2","14.1","2.5","32.3","2018","1984","42"
"Berry Creek","334	","Nevada","SNOTEL","White Pine","9377","39.31917","-114.62278","160600081301	","February 14, 2022, end of day ","2-15-2022, 02:15 PM MST","9.2","88","97","90","96","100",,,"50","55","-0.4","44","24","19",,"10.4","9.5","10.2","9.6","4.1","25.9","1991","2005","42"
"Berthoud Summit","335	","Colorado","SNOTEL","Grand","11300","39.80392","-105.77789","140100010202	","February 14, 2022, end of day ","2-15-2022, 02:15 PM MST","10.6","85","88","84","86","97","46","46","46","46","-1.7","23","34","10",,"12.5","12.1","12.6","12.3","6.9","19.1","1981","1984","44"
"Bettles Field","1182	","Alaska","SNOTEL","Yukon-Koyukuk","640","66.91667","-151.53333","190901012604	","February 14, 2022, end of day ","2-15-2022, 02:15 PM MST","8.1","159","156","159","169","100","111","119","112","119","3.3","90","5","38",,"5.1","5.2","5.1","4.8","1.7","11.8","1996","1993","42"
"Bevans Cabin","1214	","Utah","SNOTEL","Tooele","6520","40.46182","-112.25233","160203040401	","February 14, 2022, end of day ","2-15-2022, 02:15 PM MST","3.9",,,"67","67","93",,,"49","53","-1.9","22","8","3",,,,"5.8","5.8","1.5","9.8","2015","2019","10"
"Big Bend","336	","Nevada","SNOTEL","Elko","6898","41.76168","-115.6931","170501040104	","February 14, 2022, end of day ","2-15-2022, 02:15 PM MST","5.1","71","75","70","71","100","54","51","52","50","-2.1","23","34","11",,"7.2","6.8","7.3","7.2","2.5","14.5","1987","1984","44"
"Big Creek Sum","337	","Nevada","SNOTEL","Lander","8685","39.29148","-117.11506","160401070303	","February 14, 2022, end of day ","2-15-2022, 02:15 PM MST","5.3","49","49","46","48","98","27","28","26","27","-5.7","17","35","7",,"10.9","10.8","11.4","11","3.1","26.2","1981","1984","42"
"Big Creek Summit","338	","Idaho","SNOTEL","Valley","6560","44.62621","-115.79561","170602080402	","February 14, 2022, end of day ","2-15-2022, 02:15 PM MST","19.2","86","85","86","85","100","59","59","58","59","-3.4","32","28","13",,"22.2","22.7","22.4","22.6","12","36.4","2001","1997","41"
"Big Flat","339	","Utah","SNOTEL","Beaver","10349","38.30183","-112.35672","160300070202	","February 14, 2022, end of day ","2-15-2022, 02:15 PM MST","15.6","130","142","124","128","100","74","80","72","80","3.4","74","12","33",,"12","11","12.6","12.2","4.3","20.4","2018","1997","44"
"Big Flat","BFL	","California","Cooperator Snow Sensors","Trinity","5100","41.08","-122.942","180102110102	","February 14, 2022, end of day ","2-15-2022, 02:15 PM MST","10.1","72","70","73","77","100","47","47","47","46","-3","31","23","11",,"14.1","14.4","13.8","13.1","0","28.7","2015","1998","33"
"Big Goose","931	","Wyoming","SNOTEL","Sheridan","7990","44.57924","-107.20068","100901010103	","February 14, 2022, end of day ","2-15-2022, 02:15 PM MST","4.2","76","78","78","79","100","39","42","39","41","-1.1","9","22","2","2nd Lowest","5.5","5.4","5.4","5.3","3.1","7.8","2016","2012","24"
"Big Meadow","340	","Nevada","SNOTEL","Washoe","8235","39.455","-119.9422","160501020505	","February 14, 2022, end of day ","2-15-2022, 02:15 PM MST","15.2","99","103","101","102","95","66","72","67","72","0.3","55","18","21",,"15.4","14.8","15.1","14.9","3.4","39","1991","2017","39"
"Big Meadows","BIM	","California","Cooperator Snow Sensors","Tulare","7600","36.717","-118.842","180300100403	","February 14, 2022, end of day ","2-15-2022, 02:15 PM MST","24.3","145","143","141","146","91","88","97","86","97","7.7","80","8","29",,"16.8","17","17.2","16.6","2","41.6","2015","1983","36"
"Big Pine Creek","BGP	","California","Cooperator Snow Sensors","Inyo","9800","37.128","-118.475","180901020709	","February 14, 2022, end of day ","2-15-2022, 02:15 PM MST","12","108","140","107","140","98","65","84","67","88","3.4","63","12","20",,"11.1","8.6","11.2","8.6","0","31.6","1991","2017","31"
"Big Red Mountain","341	","Oregon","SNOTEL","Jackson","6050","42.05257","-122.85487","171003090301	","February 14, 2022, end of day ","2-15-2022, 02:15 PM MST","10.8","63","64","60","59","98","38","37","37","37","-7.4","22","33","10",,"17.2","16.8","17.9","18.2","2.8","40.3","2014","1983","42"
"Big Sandy Opening","342	","Wyoming","SNOTEL","Sublette","9080","42.6458","-109.25965","140401040101	","February 14, 2022, end of day ","2-15-2022, 02:15 PM MST","6.7","70","74","71","76","96","46","47","47","49","-2.1","15","34","7",,"9.6","9","9.4","8.8","5.1","17","1981","2017","40"
"Bigelow Camp","343	","Oregon","SNOTEL","Josephine","5130","42.07875","-123.34393","171003090105	","February 14, 2022, end of day ","2-15-2022, 02:15 PM MST","12.5","130","158","123","129","73","76","83","75","80","2.8","68","14","28",,"9.6","7.9","10.2","9.7","0","27.4","1991, 2014, 2015","2008","41"
"Billie Creek Divide","344	","Oregon","SNOTEL","Klamath","5280","42.40717","-122.26617","180102030201	","February 14, 2022, end of day ","2-15-2022, 02:15 PM MST","14.2","87","92","84","88","100","65","63","63","61","-2","37","28","17",,"16.4","15.4","17","16.2","0","30.6","2015","1984","44"
"Bird Creek","1155	","Nevada","SNOTEL","White Pine","7537","39.46138","-114.64863","160600081304	","February 14, 2022, end of day ","2-15-2022, 02:15 PM MST","4",,,"138","125","100",,,"111","118","0.8","70","4","8",,,,"2.9","3.2","0","5","2015","2016","11"
"Bishop Pass","BSH	","California","Cooperator Snow Sensors","Fresno","11200","37.1","-118.557","180300100302	","February 14, 2022, end of day ","2-15-2022, 02:15 PM MST","13","79","84","81","84","93","45","47","47","50","-2.4","43","17","13",,"16.4","15.5","16.1","15.4","1.3","38.7","1991","1997","29"
"Bison Lake","345	","Colorado","SNOTEL","Garfield","10880","39.76487","-107.35681","140100011401	","February 14, 2022, end of day ","2-15-2022, 02:15 PM MST",,,,,,,,,,,,,,,,"18.3","16.8","18.5","17","11.1","32.5","2002","1986","36"
"Bisson Creek","346	","Montana","SNOTEL","Lake","4920","47.68389","-113.99901","170102120602	","February 14, 2022, end of day ","2-15-2022, 02:15 PM MST","5.8","81","85","82","88","100","55","59","55","59","-0.8","20","25","7",,"7.2","6.8","7.1","6.6","3.6","15.5","2005","1997","31"
"Black Bear","347	","Montana","SNOTEL","Gallatin","8170","44.50832","-111.12803","100200070202	","February 14, 2022, end of day ","2-15-2022, 02:15 PM MST","23.4","82","87","84","87","100","54","57","55","57","-3.5","28","37","14",,"28.6","27","27.9","26.9","9.4","59.2","1977","1997","51"
"Black Flat-U.M. Ck","348	","Utah","SNOTEL","Sevier","9414","38.6799","-111.59765","140700030101	","February 14, 2022, end of day ","2-15-2022, 02:15 PM MST","4.9","73","82","72","79","100","48","51","46","50","-1.3","20","33","9",,"6.7","6","6.8","6.2","2.5","13","1991","1997","41"
"Black Mesa","1185	","Colorado","SNOTEL","Dolores","11580","37.78972","-108.18365","140300020103	","February 14, 2022, end of day ","2-15-2022, 02:15 PM MST","15.3",,,"103","106","99",,,"60","65","0.9","67","4","7",,,,"14.9","14.4","7.3","25.3","2018","2017","10"
"Black Mountain","1161	","Colorado","SNOTEL","Larimer","8920","40.888","-105.66397","101900070501	","February 14, 2022, end of day ","2-15-2022, 02:15 PM MST","8.1","109","105","109","105","100","65","65","64","63","0.4","64","5","8",,"7.4","7.7","7.4","7.7","4.9","8.7","2013","2020","12"
"Black Pine","349	","Montana","SNOTEL","Granite","7210","46.414","-113.43095","170102020203	","February 14, 2022, end of day ","2-15-2022, 02:15 PM MST","8","98","103","96","100","100","63","68","62","67","0","50","29","29",,"8.2","7.8","8.3","8","4","13.5","1977","1997","57"
"Black Springs","BLS	","California","Cooperator Snow Sensors","Calaveras","6500","38.375","-120.192","180400100303	","February 14, 2022, end of day ","2-15-2022, 02:15 PM MST","16.8","96","105","93","98","97","58","57","54","55","-0.4","47","24","21",,"17.5","16","18","17.2","0","41.3","2015","1983","44"
"Blackhall Mtn","1119	","Wyoming","SNOTEL","Carbon","9820","41.05616","-106.71384","101800020504	","February 14, 2022, end of day ","2-15-2022, 02:15 PM MST","20.9","99","104","99","104","100","61","60","62","61","0.8","58","6","8",,"21.2","20","21.1","20.1","16","30","2015","2017","13"
"Blacks Fork Jct","1162	","Utah","SNOTEL","Summit","8869","40.95814","-110.5828","140401070303	","February 14, 2022, end of day ","2-15-2022, 02:15 PM MST","6.1","100","103","105","103","100","65","65","66","69","0.2","64","5","8",,"6.1","5.9","5.8","5.9","3.7","8.8","2012","2016, 2017","12"
"Blacks Mountain","BLA	","California","Cooperator Snow Sensors","Lassen","7050","40.77","-121.198","180200030607	","February 14, 2022, end of day ","2-15-2022, 02:15 PM MST","7.6","90","90","93","92","95","54","51","55","57","-0.7","41","18","13",,"8.4","8.4","8.2","8.3","1.2","19","1991, 2018","1995","30"
"Blacktail Mtn","1144	","Montana","SNOTEL","Flathead","5650","47.98288","-114.3543","170102080302	","February 14, 2022, end of day ","2-15-2022, 02:15 PM MST","7.4","79","82","81","84","100","52","55","54","56","-1.4","9","11","1","Lowest","9.4","9","9.1","8.8","7.4","14.8","2021, 2022","2011","12"
"Blackwall Peak","2G03P	","British Columbia","Cooperator Snow Sensors","	","6345","49.08333","-120.76667","170200070205	","February 14, 2022, end of day ","2-15-2022, 02:15 PM MST",,,,,,,,,,,,,,,,"24.7","23.6","24.8","23.3","7.8","46.5","1977","1991","53"
"Blackwater","350	","Wyoming","SNOTEL","Park","9780","44.37667","-109.79333","100800120209	","February 14, 2022, end of day ","2-15-2022, 02:15 PM MST","14.1","82","88","82","88","100","49","53","49","53","-1.9","28","30","12",,"17.2","16","17.1","16","9.1","31.5","2001","1997","41"
"Blazed Alder","351	","Oregon","SNOTEL","Clackamas","3650","45.4287","-121.85605","170800010102	","February 14, 2022, end of day ","2-15-2022, 02:15 PM MST","27.6","127","145","119","135","100","80","85","78","81","7.2","70","13","29",,"21.8","19","23.1","20.4","0","61.5","2015","2008","41"
"Blewett Pass","352	","Washington","SNOTEL","Chelan","4240","47.35037","-120.6796","170200110501	","February 14, 2022, end of day ","2-15-2022, 02:15 PM MST","9.5","83","85","77","79","81","64","63","59","60","-2.5","25","31","11",,"11.5","11.2","12.3","12","1.3","20.8","2005","2008","41"
"Blind Bull Sum","353	","Wyoming","SNOTEL","Sublette","8650","42.964","-110.60973","140401010402	","February 14, 2022, end of day ","2-15-2022, 02:15 PM MST","14.8","81","90","82","94","100","52","57","53","57","-1","29","30","12",,"18.3","16.4","18.1","15.8","10.1","35.4","1992","1997","42"
"Blind Park","354	","South Dakota","SNOTEL","Pennington","6890","44.10772","-103.97688","101201100104	","February 14, 2022, end of day ","2-15-2022, 02:15 PM MST","3.7","65","67","66","69","100","46","46","46","46","-1.7","10","29","3",,"5.7","5.5","5.6","5.4","2.8","11.3","2002","1994","32"
"Bloods Creek","BLD	","California","Cooperator Snow Sensors","Alpine","7200","38.45","-120.033","180400100301	","February 14, 2022, end of day ","2-15-2022, 02:15 PM MST","17.4","84","90","82","88","97","56","58","52","56","-2.3","38","26","16",,"20.6","19.4","21.1","19.7","4.6","40","2015","1983","41"
"Bloody Dick","355	","Montana","SNOTEL","Beaverhead","7600","45.16507","-113.50099","100200011002	","February 14, 2022, end of day ","2-15-2022, 02:15 PM MST","7.1","81","78","83","84","100","54","56","55","56","-1.4","27","34","13",,"8.8","9.1","8.6","8.5","3.4","16.4","1977","1997","46"
"Blue Canyon","BLC2	","California","Cooperator Snow Sensors","Placer","5280","39.276","-120.708","180201280105	","February 14, 2022, end of day ","2-15-2022, 02:15 PM MST","14.9","177","226","162","191","86",,,"77","89","7.1","77","11","34",,"8.4","6.6","9.2","7.8","0","31","1996, 2003, 2014, more","2008","44"
"Blue Lakes","356	","California","SNOTEL","Alpine","8067","38.608","-119.92437","180400120101	","February 14, 2022, end of day ","2-15-2022, 02:15 PM MST","16.9","84","89","84","89","100","52","58","52","58","-2.1","39","26","16",,"20","19","20.1","19","4.5","40.8","1991","2017","42"
"Blue Mountain Spring","357	","Oregon","SNOTEL","Grant","5870","44.24767","-118.51722","170501160104	","February 14, 2022, end of day ","2-15-2022, 02:15 PM MST","9","72","77","71","76","100","55","54","52","52","-2.9","21","35","10",,"12.5","11.7","12.7","11.9","6.1","22.6","2018","2006","44"
"Bobs Hollow","1278	","Utah","SNOTEL","Millard","9319","38.94569","-112.15349","160300051401	","February 14, 2022, end of day ","2-15-2022, 02:15 PM MST","8.2",,,"86","89","100",,,"52","55","-1","20","5","2","2nd Lowest",,,"9.5","9.2","5.4","13.2","2018","2017","6"
"Bogus Basin","978	","Idaho","SNOTEL","Boise","6340","43.76377","-116.09685","170501220201	","February 14, 2022, end of day ","2-15-2022, 02:15 PM MST","15.4","91","96","91","96","100","62","59","62","60","-0.6","41","14","10",,"17","16","17","16","9.9","22.5","2018","2004","23"
"Bonanza King","BNK	","California","Cooperator Snow Sensors","Trinity","6450","41.083","-122.628","180102110304	","February 14, 2022, end of day ","2-15-2022, 02:15 PM MST","14.5","58","52","61","60","93","38","42","42","43","-9.7","20","29","8",,"24.9","27.7","23.8","24.2","1.6","63","2014, 2015","1998","36"
"Bone Springs Div","358	","Wyoming","SNOTEL","Sheridan","9350","44.67888","-107.5811","100800100102	","February 14, 2022, end of day ","2-15-2022, 02:15 PM MST","10.7","95","97","96","99","100","54","56","55","57","-0.1","49","22","20",,"11.3","11","11.2","10.8","7.2","15","2016","1990","42"
"Boss Mountain Mine","1C20P	","British Columbia","Cooperator Snow Sensors","	","4846","52.1","-120.86667","	","February 14, 2022, end of day ","2-15-2022, 02:15 PM MST",,,,,,,,,,,,,,,,"17.9","17.3","18","17.4","11.7","26.9","2001","1999","28"
"Bostetter R.S.","359	","Idaho","SNOTEL","Cassia","7500","42.16442","-114.19272","170402120201	","February 14, 2022, end of day ","2-15-2022, 02:15 PM MST","11.4","90","97","84","97","100","67","66","60","65","-0.4","44","24","19",,"12.6","11.8","13.5","11.8","5","38","1981","1984","42"
"Boulder Mountain","360	","Montana","SNOTEL","Meagher","7950","46.5596","-111.28973","100301030501	","February 14, 2022, end of day ","2-15-2022, 02:15 PM MST","10.9","76","77","77","77","100","47","47","48","48","-3.3","9","40","4",,"14.4","14.2","14.2","14.2","8.3","21.4","2005","1997","44"
"Bourne","361	","Oregon","SNOTEL","Baker","5850","44.83052","-118.18787","170502030101	","February 14, 2022, end of day ","2-15-2022, 02:15 PM MST","9.4","80","85","75","76","90","62","62","56","58","-3","28","32","11",,"11.7","11","12.5","12.4","5.7","20.3","2005","1983","44"
"Bowman Springs","362	","Oregon","SNOTEL","Umatilla","4530","45.36428","-118.46715","170701030401	","February 14, 2022, end of day ","2-15-2022, 02:15 PM MST","7.9","132","118","114","114","98","94","107","84","84","1","70","14","31",,"6","6.7","6.9","6.9","0","15.3","2015","1989","44"
"Box Canyon","363	","Montana","SNOTEL","Park","6670","45.2719","-110.24903","100700020902	","February 14, 2022, end of day ","2-15-2022, 02:15 PM MST","5","68","76","70","76","100","47","53","48","50","-1.6","9","40","5",,"7.3","6.6","7.1","6.6","4.5","13.8","2001, 2010","1997","44"
"Box Creek","364	","Utah","SNOTEL","Sevier","9853","38.50809","-112.01856","160300020106	","February 14, 2022, end of day ","2-15-2022, 02:15 PM MST","2.9",,,"36","36","88",,,"21","22","-5.2","5","41","3",,,,"8.1","8.1","1.2","15.7","2018","2005","43"
"Box Springs","1156	","Utah","SNOTEL","Piute","9228","38.49746","-112.00779","160300020107	","February 14, 2022, end of day ","2-15-2022, 02:15 PM MST","4.8","86","86","89","87","98","62","65","63","67","-0.7","27","9","4",,"5.6","5.6","5.4","5.5","2.9","8","2018","2011","12"
"Brackett Creek","365	","Montana","SNOTEL","Gallatin","7320","45.89107","-110.93851","100700030403	","February 14, 2022, end of day ","2-15-2022, 02:15 PM MST","10.1","67","70","68","71","99","39","41","40","41","-4.1","11","25","4",,"15.1","14.4","14.9","14.2","8.1","25.6","2012","1997","28"
"Brenda Mines","2F18P	","British Columbia","Cooperator Snow Sensors","	","4767","49.85","-119.98333","170200060808	","February 14, 2022, end of day ","2-15-2022, 02:15 PM MST",,,,,,,,,,,,,,,,"10.6","10.1","10.6","10.4","6.8","15.4","2001","1996, 1997","29"
"Brian Head","1154	","Utah","SNOTEL","Iron","10039","37.67994","-112.85674","160300060201	","February 14, 2022, end of day ","2-15-2022, 02:15 PM MST","9.4",,,"86","91","99",,,"53","55","-0.9","40","7","5",,,,"10.9","10.3","5.2","17.5","2018","2019","11"
"Brighton","366	","Utah","SNOTEL","Salt Lake","8766","40.59936","-111.58167","160202040201	","February 14, 2022, end of day ","2-15-2022, 02:15 PM MST","11.4","71","79","72","79","99","45","48","46","47","-3","26","27","9",,"16","14.4","15.8","14.4","9.5","25.7","2018","1997","36"
"Bristlecone Trail","1111	","Nevada","SNOTEL","Clark","8890","36.31575","-115.69543","150100150206	","February 14, 2022, end of day ","2-15-2022, 02:15 PM MST","10.1","116","153","120","153","100","94","128","98","129","3.5","69","5","10",,"8.7","6.6","8.4","6.6","2.3","20.6","2018","2011","14"
"Brooklyn Lake","367	","Wyoming","SNOTEL","Albany","10240","41.35885","-106.23209","101800100502	","February 14, 2022, end of day ","2-15-2022, 02:15 PM MST","15","99","101","99","103","100","59","59","58","60","0.5","52","20","22",,"15.2","14.8","15.1","14.5","7.6","28.5","1981","1997","41"
"Brown Duck","368	","Utah","SNOTEL","Duchesne","10574","40.58102","-110.58587","140600030604	","February 14, 2022, end of day ","2-15-2022, 02:15 PM MST","13.5","104","111","103","110","100","62","69","62","67","1.2","56","20","25",,"13","12.2","13.1","12.3","7.4","27.4","2002","2005","44"
"Brown Top","1080	","Washington","SNOTEL","Whatcom","5830","48.92755","-121.19713","171100050601	","February 14, 2022, end of day ","2-15-2022, 02:15 PM MST","40.9","89","89","89","89","100","58","56","58","56","-5.3","17","11","3",,"46.1","46.2","45.8","46.2","36.5","53.1","2014","2011","13"
"Brumley","369	","Colorado","SNOTEL","Lake","10600","39.08766","-106.5417","110200010101	","February 14, 2022, end of day ","2-15-2022, 02:15 PM MST","6.2","83","93","85","91","97","50","53","51","54","-0.6","41","25","17",,"7.5","6.7","7.3","6.8","2.8","12.9","1981","1984","42"
"Brundage Reservoir","370	","Idaho","SNOTEL","Adams","6250","45.04315","-116.13253","170602100104	","February 14, 2022, end of day ","2-15-2022, 02:15 PM MST","17.6","85","86","88","89","100","58","55","60","59","-2.2","34","24","13",,"20.6","20.4","20","19.8","10.7","33.4","2001","1999","36"
"Buck Flat","371	","Utah","SNOTEL","Sanpete","9409","39.134","-111.43722","140600090302	","February 14, 2022, end of day ","2-15-2022, 02:15 PM MST","9","75","78","74","75","100","49","53","47","53","-3","26","33","12",,"12","11.6","12.2","12","5","25.9","1981","1997","44"
"Buck Pasture","1192	","Utah","SNOTEL","Summit","9632","40.84456","-110.66068","140401070301	","February 14, 2022, end of day ","2-15-2022, 02:15 PM MST","8.8",,,"88","98","98",,,"57","55","-0.2","44","6","5",,,,"10","9","7.8","15","2018","2017","10"
"Buckboard Flat","1153	","Utah","SNOTEL","San Juan","8924","37.86943","-109.44717","140802030103	","February 14, 2022, end of day ","2-15-2022, 02:15 PM MST","6",,,"68","71","100",,,"46","51","-2.5","11","9","2","2nd Lowest",,,"8.8","8.5","4.9","13.9","2018","2020","10"
"Buckinghorse","1107	","Washington","SNOTEL","Jefferson","4870","47.7086","-123.45747","171100200501	","February 14, 2022, end of day ","2-15-2022, 02:15 PM MST","32.2","87","79","86","79","98","54","51","53","51","-8.7","23","11","4",,"36.9","40.9","37.4","40.9","5.1","52.4","2015","2013","14"
"Bucks Lake","BKL	","California","Cooperator Snow Sensors","Plumas","5750","39.85","-121.242","180201230702	","February 14, 2022, end of day ","2-15-2022, 02:15 PM MST","30.3","106","107","107","109","68","69","65","65","65","2.5","57","21","27",,"28.6","28.4","28.3","27.8","0","68","2015","1983","47"
"Buckskin Joe","938	","Colorado","SNOTEL","Park","11150","39.3035","-106.11307","101900010102	","February 14, 2022, end of day ","2-15-2022, 02:15 PM MST","4.7","71","72","73","73",,"37","37","37","37","-1.7","18","19","5",,"6.6","6.5","6.4","6.4","2.8","9.4","2002","2006, 2014","23"
"Buckskin Lower","373	","Nevada","SNOTEL","Humboldt","6930","41.75067","-117.53182","160401090502	","February 14, 2022, end of day ","2-15-2022, 02:15 PM MST","7","99","97","95","92","89","69","67","65","64","-0.6","46","23","19",,"7.1","7.2","7.4","7.6","1.7","16.1","2015","1984","42"
"Buffalo Park","913	","Colorado","SNOTEL","Grand","9240","40.22861","-106.59528","140100010706	","February 14, 2022, end of day ","2-15-2022, 02:15 PM MST","9.3","89","89","89","93","100","61","62","62","63","-0.7","42","16","12",,"10.5","10.5","10.4","10","5.3","15.7","2002","2014","27"
"Bug Lake","374	","Utah","SNOTEL","Rich","7987","41.68541","-111.41987","160102010102	","February 14, 2022, end of day ","2-15-2022, 02:15 PM MST","10.8","78","81","78","82","100","53","57","52","54","-2.4","30","31","14",,"13.8","13.4","13.9","13.2","6.6","28","2010","1997","44"
"Bumping Ridge","375	","Washington","SNOTEL","Yakima","4610","46.81003","-121.33058","170300020105	","February 14, 2022, end of day ","2-15-2022, 02:15 PM MST","18.6","91","96","94","96","96","65","65","67","66","-0.7","45","23","19",,"20.4","19.4","19.8","19.3","1.9","40.2","1981","1999","41"
"Bunchgrass Mdw","376	","Washington","SNOTEL","Pend Oreille","5000","48.68688","-117.17633","170102160401	","February 14, 2022, end of day ","2-15-2022, 02:15 PM MST","16.3","81","84","82","85","100","54","56","55","57","-2.9","23","31","10",,"20.2","19.4","19.8","19.2","11.3","34.9","2015","1997","40"
"Burgess Junction","377	","Wyoming","SNOTEL","Sheridan","7880","44.78765","-107.52917","100901010202	","February 14, 2022, end of day ","2-15-2022, 02:15 PM MST","7.4","100","100","100","100","100","55","57","54","56","0","60","17","21",,"7.4","7.4","7.4","7.4","4.3","10.8","2016","1990","41"
"Burnside Lake","1051	","California","SNOTEL","Alpine","8129","38.71943","-119.8942","160502010107	","February 14, 2022, end of day ","2-15-2022, 02:15 PM MST","16.1","89","85","91","88","95","59","65","61","68","-2.3","44","11","9",,"18","19","17.7","18.4","5.5","40.2","2012","2017","19"
"Burnt Bridge Creek","3C08P	","British Columbia","Cooperator Snow Sensors","	","4360","52.46667","-126.23333","	","February 14, 2022, end of day ","2-15-2022, 02:15 PM MST",,,,,,,,,,,,,,,,"25.6","22.4","25.8","22.4","10.8","44.7","2003","2012","23"
"Burnt Mountain","942	","Washington","SNOTEL","Pierce","4170","47.0444","-121.94032","171100140103	","February 14, 2022, end of day ","2-15-2022, 02:15 PM MST","14.2","129","113","128","113","100","65","71","65","70","1.6","73","7","17",,"11","12.6","11.1","12.6","0","24.4","2015","2008","23"
"Burnt Mtn","981	","Montana","SNOTEL","Carbon","5880","45.2401","-109.45961","100700060802	","February 14, 2022, end of day ","2-15-2022, 02:15 PM MST","3.4","92","92","94","97","100","56","58","56","57","-0.1","45","12","10",,"3.7","3.7","3.6","3.5","1","6.6","2015","2014","21"
"Burro Mountain","378	","Colorado","SNOTEL","Rio Blanco","9400","39.87505","-107.59853","140500050302	","February 14, 2022, end of day ","2-15-2022, 02:15 PM MST","8.3","75","78","74","78","100","47","50","45","49","-2.4","14","37","7",,"11.1","10.6","11.2","10.7","5.1","22.8","1981","1997","43"
"Burroughs Creek","379	","Wyoming","SNOTEL","Fremont","8750","43.69733","-109.67021","100800010102	","February 14, 2022, end of day ","2-15-2022, 02:15 PM MST","5.6",,,"54","60","93",,,"36","39","-3.8","0","43","1","Lowest",,,"10.3","9.4","5.6","20.6","2022","1997","43"
"Burts Miller Ranch","1135	","Utah","SNOTEL","Summit","8000","40.98492","-110.85075","160101010105	","February 14, 2022, end of day ","2-15-2022, 02:15 PM MST","4.1","89","85","93","93","98","60","64","60","62","-0.3","42","8","6",,"4.6","4.8","4.4","4.4","2.8","6.3","2010","2011","13"
"Butte","380	","Colorado","SNOTEL","Gunnison","10160","38.89433","-106.953","140200010206	","February 14, 2022, end of day ","2-15-2022, 02:15 PM MST","10.1","98","110","98","103","100","65","74","64","69","0.3","54","20","23",,"10.3","9.2","10.3","9.8","4.4","18.2","1990","2017","42"
"Calamity","1109	","Washington","SNOTEL","Skamania","2500","45.90362","-122.21633","170800020603	","February 14, 2022, end of day ","2-15-2022, 02:15 PM MST","1.7","57","425","61","283","18","24","29","25","29","1.1","62","6","9",,"3","0.4","2.8","0.6","0","15.1","2014, 2015, 2016, more","2009","14"
"Calvert Creek","381	","Montana","SNOTEL","Deer Lodge","6430","45.8838","-113.32553","100200040801	","February 14, 2022, end of day ","2-15-2022, 02:15 PM MST","6.2","91","97","94","100","100","69","74","71","74","0","50","24","23",,"6.8","6.4","6.6","6.2","2.8","14.2","1977","1997","47"
"Camas Creek Divide","382	","Idaho","SNOTEL","Elmore","5710","43.26548","-115.3453","170402200101	","February 14, 2022, end of day ","2-15-2022, 02:15 PM MST","8.6","88","86","88","86","100","69","69","70","70","-1.4","28","22","9",,"9.8","10","9.8","10","3.1","14.5","2018","1993","30"
"Camp Jackson","383	","Utah","SNOTEL","San Juan","8858","37.81333","-109.48723","140802010301	","February 14, 2022, end of day ","2-15-2022, 02:15 PM MST","6","54","61","57","65","100","39","44","41","44","-3.3","28","27","11",,"11.1","9.8","10.6","9.3","2.7","27.3","1996","2005","37"
"Canyon","384	","Wyoming","SNOTEL","Park","7870","44.71961","-110.51084","100700010705	","February 14, 2022, end of day ","2-15-2022, 02:15 PM MST","6.7",,,"69","72","100",,,"47","50","-2.6","12","37","5",,,,"9.7","9.3","5.2","20.2","1981","1997","42"
"Caples Lake","CAP	","California","Cooperator Snow Sensors","Alpine","8000","38.71","-120.042","180201290101	","February 14, 2022, end of day ","2-15-2022, 02:15 PM MST","16.6","76","77","80","81","90","50","53","50","51","-4","35","32","18",,"21.7","21.5","20.7","20.6","3.3","42.7","1977","2017","49"
"Carrot Basin","385	","Montana","SNOTEL","Gallatin","9000","44.96192","-111.29403","100200080105	","February 14, 2022, end of day ","2-15-2022, 02:15 PM MST","17.5","92","95","89","94","100","56","56","55","51","-1.1","35","37","20",,"19.1","18.4","19.6","18.6","7.9","34.9","1977","1997","56"
"Carson Pass","1067	","California","SNOTEL","Alpine","8360","38.6927","-120.0022","180201290101	","February 14, 2022, end of day ","2-15-2022, 02:15 PM MST","16.7","77","73","79","84","93","47","55","49","61","-3.3","41","11","8",,"21.7","22.8","21.1","20","8.6","40.6","2012","2017","18"
"Casa Vieja Meadows","CSV	","California","Cooperator Snow Sensors","Tulare","8300","36.2","-118.268","180300010401	","February 14, 2022, end of day ","2-15-2022, 02:15 PM MST","10.4","74","81","75","85","97","52","62","54","63","-1.8","40","22","15",,"14.1","12.9","13.8","12.2","2","29.1","1991","2017","36"
"Cascade","386	","Colorado","SNOTEL","San Juan","8880","37.65083","-107.80602","140801040201	","February 14, 2022, end of day ","2-15-2022, 02:15 PM MST","8.3","81","86","78","78","100","59","65","56","58","-2.3","33","30","14",,"10.2","9.7","10.6","10.6","1","23","1981","1979","44"
"Cascade #2","387	","Colorado","SNOTEL","San Juan","8920","37.658","-107.80268","140801040201	","February 14, 2022, end of day ","2-15-2022, 02:15 PM MST","7.1","76","81","77","83","89","60","68","60","69","-1.5","42","19","14",,"9.3","8.8","9.2","8.6","2","28.4","2015","1997","32"
"Cascade Mountain","1039	","Utah","SNOTEL","Utah","7774","40.283","-111.60992","160202030505	","February 14, 2022, end of day ","2-15-2022, 02:15 PM MST","7.7","60","58","62","59","100","42","43","43","44","-5.3","5","19","2","2nd Lowest","12.8","13.2","12.5","13","4","19.2","2018","2017","20"
"Cascade Summit","388	","Oregon","SNOTEL","Deschutes","5100","43.59042","-122.0601","170900010301	","February 14, 2022, end of day ","2-15-2022, 02:15 PM MST","18.3","82","86","81","85","97","57","56","55","56","-3.3","32","29","14",,"22.2","21.2","22.6","21.6","5.8","37.7","2015","2008","42"
"Casper Mtn.","389	","Wyoming","SNOTEL","Natrona","7900","42.73389","-106.31861","101800070804	","February 14, 2022, end of day ","2-15-2022, 02:15 PM MST","6.7","74","78","74","77","100","41","42","39","41","-2","18","33","8",,"9.1","8.6","9.1","8.7","4.1","16.4","2013","1997","40"
"Castle Creek","1130	","Wyoming","SNOTEL","Fremont","8400","43.6748","-109.3774","100800010401	","February 14, 2022, end of day ","2-15-2022, 02:15 PM MST","3.1","56","61","60","67","100","40","39","41","40","-1.5","18","10","2","2nd Lowest","5.5","5.1","5.2","4.6","3","10","2019","2017","12"
"Castle Valley","390	","Utah","SNOTEL","Iron","9607","37.66098","-112.74093","160300010201	","February 14, 2022, end of day ","2-15-2022, 02:15 PM MST","6.6","68","73","71","77","100","43","43","43","45","-2","37","27","15",,"9.7","9","9.3","8.6","3.7","23.5","1990","2005","42"
"Cave Mountain","1152	","Nevada","SNOTEL","White Pine","10578","39.16337","-114.6133","160600080402	","February 14, 2022, end of day ","2-15-2022, 02:15 PM MST","6.8",,,"93","96","99",,,"57","68","-0.3","40","7","5",,,,"7.3","7.1","2.7","12.2","2018","2017","11"
"Cayuse Pass","1085	","Washington","SNOTEL","Pierce","5240","46.86954","-121.5343","171100140301	","February 14, 2022, end of day ","2-15-2022, 02:15 PM MST","36.7","92","88","91","88","95","59","56","58","56","-5.1","33","11","6",,"39.8","41.8","40.2","41.8","9.6","57.3","2015","2008","16"
"Cedar Kiteen","4B18P	","British Columbia","Cooperator Snow Sensors","	","2992","55.15","-128.7","	","February 14, 2022, end of day ","2-15-2022, 02:15 PM MST",,,,,,,,,,,,,,,,"20.5","16.6","20.4","16.7","10.4","36.1","2010","2009","19"
"Cedar Pass","391	","California","SNOTEL","Modoc","7030","41.58233","-120.3025","180200020603	","February 14, 2022, end of day ","2-15-2022, 02:15 PM MST","9.5","77","77","77","77","100","50","48","49","48","-2.9","35","29","15",,"12.3","12.4","12.4","12.4","3.1","23.6","2015","1998","44"
"Celista Mountain","1F06P	","British Columbia","Cooperator Snow Sensors","	","5030","51.4","-118.98333","	","February 14, 2022, end of day ","2-15-2022, 02:15 PM MST",,,,,,,,,,,,,,,,"27.1","27","27.2","27.2","19.2","34.6","2017","2007","16"
"Chagoopa Plateau","CHP	","California","Cooperator Snow Sensors","Tulare","10300","36.497","-118.442","180300010203	","February 14, 2022, end of day ","2-15-2022, 02:15 PM MST","10.4","70","78","74","81","87","47","55","49","59","-2.4","34","24","13",,"14.9","13.4","14.1","12.8","2","41.1","1991","2017","36"
"Chalender","1139	","Arizona","SNOTEL","Coconino","7100","35.26247","-112.06231","150602020305	","February 14, 2022, end of day ","2-15-2022, 02:15 PM MST","2.5","96","96","96","96","100","64","76","66","78","-0.1","42","8","6",,"2.6","2.6","2.6","2.6","0","9.2","2015","2010","13"
"Chalk Creek #1","392	","Utah","SNOTEL","Summit","9171","40.85464","-111.04765","160201010301	","February 14, 2022, end of day ","2-15-2022, 02:15 PM MST","12.6","78","84","78","83","99","49","51","48","49","-2.6","21","35","10",,"16.2","15","16.2","15.2","9","27.2","1981","1997","44"
"Chalk Creek #2","393	","Utah","SNOTEL","Summit","8208","40.88529","-111.06954","160201010301	","February 14, 2022, end of day ","2-15-2022, 02:15 PM MST","10","93","104","93","100","100","60","60","58","60","0","49","23","22",,"10.7","9.6","10.7","10","5.5","18.2","2018","1997","44"
"Chamita","394	","New Mexico","SNOTEL","Rio Arriba","8400","36.95636","-106.65682","130201020204	","February 14, 2022, end of day ","2-15-2022, 02:15 PM MST","7.4","94","94","91","94","100","73","80","68","74","-0.5","36","28","16",,"7.9","7.9","8.1","7.9","2","16.3","2018","1980","43"
"Chapman Tunnel","1101	","Colorado","SNOTEL","Pitkin","10110","39.26217","-106.62931","140100040504	","February 14, 2022, end of day ","2-15-2022, 02:15 PM MST","10.9","107","98","108","100","100","70","71","71","71","0","50","8","8",,"10.2","11.1","10.1","10.9","5.2","15.6","2013","2008","15"
"Chemult Alternate","395	","Oregon","SNOTEL","Klamath","4850","43.22625","-121.80662","180102010201	","February 14, 2022, end of day ","2-15-2022, 02:15 PM MST","6.6","88","97","87","87","92","71","79","69","73","-1","39","26","16",,"7.5","6.8","7.6","7.6","0","16.2","2015, 2018","1993","42"
"Chena Lakes","1260	","Alaska","SNOTEL","Fairbanks North Star","500","64.75793","-147.21823","190803060901	","February 14, 2022, end of day ","2-15-2022, 02:15 PM MST","7.1",,,"142","142",,,,"127","127","2.1","100","1","2","2nd Lowest",,,"5","5","2.9","7.1","2021","2022","2"
"Chepeta","396	","Utah","SNOTEL","Duchesne","10499","40.77458","-110.0105","140600031202	","February 14, 2022, end of day ","2-15-2022, 02:15 PM MST","8","81","89","82","87","99","50","54","49","53","-1.2","32","29","14",,"9.9","9","9.7","9.2","4","27.3","2018","2005","42"
"Chilkoot Meadow","CHM	","California","Cooperator Snow Sensors","Madera","7150","37.41","-119.49","180400061101	","February 14, 2022, end of day ","2-15-2022, 02:15 PM MST","20.6","90","92","93","98","94","56","64","56","64","-0.5","47","20","18",,"22.9","22.3","22.2","21.1","0.1","49.2","2018","2005","37"
"Chilliwack River","1D17P	","British Columbia","Cooperator Snow Sensors","	","5318","49.01667","-121.7","171100010206	","February 14, 2022, end of day ","2-15-2022, 02:15 PM MST",,,,,,,,,,,,,,,,"43.9","45.8","43.9","45.8","18.6","78","2005","1999","28"
"Chisana","1093	","Alaska","SNOTEL","Valdez-Cordova","3320","62.069","-142.049","190803010305	","February 14, 2022, end of day ","2-15-2022, 02:15 PM MST","3.6","124","120","124","120","100","92","95","92","95","0.6","85","3","12",,"2.9","3","2.9","3","1.5","4.3","2019","2009","14"
"Chocolate Gulch","895	","Idaho","SNOTEL","Blaine","6310","43.7685","-114.41812","170402190301	","February 14, 2022, end of day ","2-15-2022, 02:15 PM MST","8.8","95","100","95","100","100","69","70","69","70","0","57","13","15",,"9.3","8.8","9.3","8.8","5.2","19.2","1994, 2001","1997","29"
"Cinnabar Park","1046	","Wyoming","SNOTEL","Albany","9574","41.23837","-106.23095","101800100503	","February 14, 2022, end of day ","2-15-2022, 02:15 PM MST","13.7","90","91","91","94","100","64","61","65","63","-0.9","33","13","7",,"15.3","15","15.1","14.6","11.2","20.6","2013","2011","19"
"Clackamas Lake","398	","Oregon","SNOTEL","Clackamas","3400","45.09658","-121.75443","170900110301	","February 14, 2022, end of day ","2-15-2022, 02:15 PM MST","14.2","161","173","148","146","89","115","114","108","108","4.5","80","9","34",,"8.8","8.2","9.6","9.7","0","21.5","2015","2008","42"
"Clayton Springs","983	","Utah","SNOTEL","Garfield","10049","37.9725","-111.83355","160300020501	","February 14, 2022, end of day ","2-15-2022, 02:15 PM MST","6.3","72","79","74","85","100","49","54","50","55","-1.1","24","17","6",,"8.7","8","8.5","7.4","3.6","19.8","2002","2005","22"
"Clear Creek #1","399	","Utah","SNOTEL","Utah","8975","39.86671","-111.28363","160202020102	","February 14, 2022, end of day ","2-15-2022, 02:15 PM MST","9.9","79","84","76","81","100","52","54","50","53","-2.3","33","30","15",,"12.6","11.8","13","12.2","5","27","2018","1997","44"
"Clear Creek #2","400	","Utah","SNOTEL","Utah","7837","39.89275","-111.25154","160202020102	","February 14, 2022, end of day ","2-15-2022, 02:15 PM MST","7.5","80","94","77","86","100","54","58","51","56","-1.2","40","27","18",,"9.4","8","9.7","8.7","4.3","18.8","2018","1997","44"
"Clear Lake","401	","Oregon","SNOTEL","Wasco","3810","45.18832","-121.6916","170703060901	","February 14, 2022, end of day ","2-15-2022, 02:15 PM MST","10.6","115","139","108","118","88","81","88","79","82","1.6","59","18","25",,"9.2","7.6","9.8","9","0","24.4","2015","2008","42"
"Cloud Peak Reservoir","402	","Wyoming","SNOTEL","Johnson","9860","44.40343","-107.06057","100902060301	","February 14, 2022, end of day ","2-15-2022, 02:15 PM MST","9.4","93","98","98","100","100","50","52","51","53","0","49","23","21",,"10.1","9.6","9.6","9.4","5.3","14.7","1981, 2016","1986","44"
"Clover Meadow","403	","Montana","SNOTEL","Madison","8600","45.01788","-111.8456","100200070803	","February 14, 2022, end of day ","2-15-2022, 02:15 PM MST","8.3","74","78","75","78","100","43","44","43","47","-2.3","5","42","3",,"11.2","10.7","11.1","10.6","7.8","17.1","2017","1997","44"
"Cochetopa Pass","1059	","Colorado","SNOTEL","Saguache","10020","38.16283","-106.59883","130100040203	","February 14, 2022, end of day ","2-15-2022, 02:15 PM MST","2.1","62","66","62","66","100","45","44","44","42","-1.1","12","16","3",,"3.4","3.2","3.4","3.2","1.6","5.3","2018","2020","18"
"Cold Springs","405	","Wyoming","SNOTEL","Fremont","9630","43.27676","-109.44585","100800010702	","February 14, 2022, end of day ","2-15-2022, 02:15 PM MST","6.9","125","128","125","130","99","78","83","78","86","1.6","82","8","31",,"5.5","5.4","5.5","5.3","2.4","9.3","2001","2017","39"
"Cold Springs Camp","406	","Oregon","SNOTEL","Klamath","5940","42.53305","-122.17683","180102030202	","February 14, 2022, end of day ","2-15-2022, 02:15 PM MST","11.2","55","54","52","51","81","40","40","37","38","-10.6","12","36","6",,"20.5","20.6","21.7","21.8","0","39","2015","2006","41"
"Coldfoot","958	","Alaska","SNOTEL","Yukon-Koyukuk","1040","67.25333","-150.183","190901010604	","February 14, 2022, end of day ","2-15-2022, 02:15 PM MST","6.8","133","145","133","145","100","96","96","97","97","2.1","81","6","21",,"5.1","4.7","5.1","4.7","1.5","9.2","1996","2019","27"
"Cole Canyon","982	","Wyoming","SNOTEL","Crook","5910","44.48632","-104.41057","101202030302	","February 14, 2022, end of day ","2-15-2022, 02:15 PM MST","3.2","78","80","80","82","100","51","51","51","52","-0.7","29","16","5",,"4.1","4","4","3.9","1.9","6.7","2005","2011","22"
"Cole Creek","407	","Montana","SNOTEL","Carbon","7850","45.19405","-109.34548","100700060801	","February 14, 2022, end of day ","2-15-2022, 02:15 PM MST","6.6","72","79","69","75","100","34","36","32","34","-2.2","13","42","7",,"9.2","8.4","9.5","8.8","4.3","14.8","2002","1975, 1976","48"
"Columbine","408	","Colorado","SNOTEL","Jackson","9160","40.3948","-106.60408","101800010102	","February 14, 2022, end of day ","2-15-2022, 02:15 PM MST","14.5","80","90","81","85","97","56","59","56","58","-2.5","20","34","9",,"18.1","16.2","17.9","17","7.2","26.7","1981","1996","42"
"Columbine Pass","409	","Colorado","SNOTEL","Montrose","9400","38.41795","-108.38249","140200050202	","February 14, 2022, end of day ","2-15-2022, 02:15 PM MST","15.2","115","125","117","123","97","80","84","82","86","2.8","74","10","25",,"13.2","12.2","13","12.4","3.9","21.8","2018","1993","36"
"Columbus Basin","904	","Colorado","SNOTEL","La Plata","10785","37.44147","-108.02445","140801050101	","February 14, 2022, end of day ","2-15-2022, 02:15 PM MST","14.4","81","83","83","88","100","54","56","54","56","-2","41","17","12",,"17.8","17.4","17.4","16.4","7.1","34.1","2018","2005","28"
"Combination","410	","Montana","SNOTEL","Granite","5600","46.46523","-113.39358","170102020401	","February 14, 2022, end of day ","2-15-2022, 02:15 PM MST","3.9","105","108","100","100","95","75","78","70","74","0","53","24","25",,"3.7","3.6","3.9","3.9","1.1","6.4","2005","1975","50"
"Cool Creek","411	","Idaho","SNOTEL","Clearwater","6280","46.76361","-115.29528","170603070702	","February 14, 2022, end of day ","2-15-2022, 02:15 PM MST","32.8","98","105","99","105","100","66","71","67","71","1.7","56","17","21",,"33.3","31.1","33.1","31.1","18.7","62.3","2001","1997","37"
"Cooper Lake","959	","Alaska","SNOTEL","Kenai Peninsula","1200","60.39027","-149.6936","190203021205	","February 14, 2022, end of day ","2-15-2022, 02:15 PM MST","9.5","86","85","83","82","100","61","66","59","63","-2.1","28","30","12",,"11.1","11.2","11.5","11.6","2.7","21","2015","1992","41"
"Copeland Lake","412	","Colorado","SNOTEL","Boulder","8600","40.20778","-105.56861","101900050202	","February 14, 2022, end of day ","2-15-2022, 02:15 PM MST","7.5","160","163","167","174","99","123","125","129","129","3.2","92","4","38",,"4.7","4.6","4.5","4.3","1.6","8.9","1981","2017","41"
"Copper Bottom","413	","Montana","SNOTEL","Lewis And Clark","5200","47.05678","-112.595","170102030103	","February 14, 2022, end of day ","2-15-2022, 02:15 PM MST","5","70","71","68","68","93","54","57","51","54","-2.4","14","38","7",,"7.1","7","7.4","7.4","0","15","2005","1997","44"
"Copper Camp","414	","Montana","SNOTEL","Lewis And Clark","6950","47.08158","-112.72955","170102030103	","February 14, 2022, end of day ","2-15-2022, 02:15 PM MST","17.7","59","57","72","78","99","43","43","50","54","-5.1","21","35","9",,"29.8","31","24.6","22.8","12","45.8","2001","2008","44"
"Copper Mountain","415	","Colorado","SNOTEL","Summit","10550","39.48954","-106.17095","140100020302	","February 14, 2022, end of day ","2-15-2022, 02:15 PM MST","9.4","90","94","93","96","100","54","54","56","54","-0.4","44","25","20",,"10.4","10","10.1","9.8","4.5","16.1","1981","2014","44"
"Coronado Trail","416	","Arizona","SNOTEL","Apache","8400","33.80392","-109.15282","150400040501	","February 14, 2022, end of day ","2-15-2022, 02:15 PM MST","0.2","7","8","7","11","11","5","6","5","6","-1.7","32","29","14",,"2.7","2.4","2.8","1.9","0","11.5","2016, 2017, 2018, more","1993","42"
"Corral","1236	","Utah","SNOTEL","Carbon","8207","39.65795","-110.37906","140600070903	","February 14, 2022, end of day ","2-15-2022, 02:15 PM MST","6.5",,,"105","116","100",,,"79","108","0.9","62","4","6",,,,"6.2","5.6","2.4","12.8","2018","2017","9"
"Corral Canyon","417	","Nevada","SNOTEL","Elko","8445","40.27551","-115.54017","160401030401	","February 14, 2022, end of day ","2-15-2022, 02:15 PM MST","7.6","70","70","70","71","100","40","42","40","41","-3.1","21","35","9",,"10.9","10.8","10.8","10.7","3.9","21.8","2012","1984","44"
"Corral Pass","418	","Washington","SNOTEL","Pierce","5800","47.01872","-121.46464","171100140307	","February 14, 2022, end of day ","2-15-2022, 02:15 PM MST","23.7","95","96","96","95","100","62","62","63","61","-1.3","36","26","15",,"24.9","24.7","24.6","25","5.1","44.8","1984","1997","40"
"Cottonwood Creek","419	","Wyoming","SNOTEL","Lincoln","7670","42.6459","-110.81482","170401050102	","February 14, 2022, end of day ","2-15-2022, 02:15 PM MST","12.6","78","82","79","83","99","53","56","54","57","-2.6","19","31","7",,"16.2","15.3","15.9","15.2","9.8","25","1994","1997","38"
"Cottonwood Lakes","CWD	","California","Cooperator Snow Sensors","Inyo","10150","36.483","-118.177","180901030404	","February 14, 2022, end of day ","2-15-2022, 02:15 PM MST","8.3","87","109","89","109",,"56","62","53","59","0.7","61","18","27",,"9.5","7.6","9.3","7.6","0.5","25.5","2018","2005","45"
"Couch Summit","1306	","Idaho","SNOTEL","Camas","6800","43.51768","-114.8022","170501130204	","February 14, 2022, end of day ","2-15-2022, 02:15 PM MST","11.1",,,"100","100","100",,,,,"0",,"1","1",,,,"11.1","11.1","11.1","11.1","2022","2022","1"
"Cougar Mountain","420	","Washington","SNOTEL","King","3200","47.27666","-121.67138","171100130202	","February 14, 2022, end of day ","2-15-2022, 02:15 PM MST","10.6","95","90","87","85","77","55","60","52","55","-1.9","40","25","17",,"11.1","11.8","12.2","12.5","0","33.7","2015","2008","41"
"County Line","422	","Oregon","SNOTEL","Umatilla","4830","45.19107","-118.55015","170601040202	","February 14, 2022, end of day ","2-15-2022, 02:15 PM MST","4.1","121","121","105","100","73","82","82","75","69","0","51","21","21",,"3.4","3.4","3.9","4.1","0","9.1","2015","1989","42"
"Cozy Cove","423	","Idaho","SNOTEL","Valley","5400","44.28846","-115.65508","170501200403	","February 14, 2022, end of day ","2-15-2022, 02:15 PM MST","9.7","89","97","84","92","100","68","69","65","67","-0.8","34","28","14",,"10.9","10","11.5","10.5","5","20.5","2013","1983, 1997","42"
"Crab Creek","424	","Idaho","SNOTEL","Clark","6900","44.437","-111.99384","170402140108	","February 14, 2022, end of day ","2-15-2022, 02:15 PM MST","7.7","83","90","80","88","99","56","57","53","56","-1.1","35","27","14",,"9.3","8.6","9.6","8.8","4.2","18.6","1991","1995","41"
"Crater Meadows","425	","Idaho","SNOTEL","Clearwater","5960","46.56394","-115.28903","170603070502	","February 14, 2022, end of day ","2-15-2022, 02:15 PM MST","33.4","97","100","100","101","100","66","67","68","69","0.3","54","18","21",,"34.4","33.4","33.5","33.1","20.5","58.3","2001","1997","38"
"Crazyman Flat","1010	","Oregon","SNOTEL","Klamath","6180","42.6381","-120.94917","180102020101	","February 14, 2022, end of day ","2-15-2022, 02:15 PM MST","8.6","80","80","81","81","86","56","57","57","61","-2","25","16","6",,"10.8","10.7","10.6","10.6","0","20.6","2015","2006","21"
"Creamers Field","1302	","Alaska","SNOTEL","Fairbanks North Star","440","64.86534","-147.73617","190803060907	","February 14, 2022, end of day ","2-15-2022, 02:15 PM MST","5.4",,,"100","100","100",,,,,"0",,"1","1",,,,"5.4","5.4","5.4","5.4","2022","2022","1"
"Crescent Lake #1","2002	","Minnesota","SCAN","Sherburne","980","45.41667","-93.95","070102030503	","February 14, 2022, end of day ","2-15-2022, 02:15 PM MST",,,,,,,,,,,,,,,,,,"3","2.6","0.3","5.6","2002","2020","20"
"Crosho","426	","Colorado","SNOTEL","Rio Blanco","9100","40.16745","-107.0575","140500010106	","February 14, 2022, end of day ","2-15-2022, 02:15 PM MST","7.8","88","89","89","91","100","59","62","60","63","-0.8","37","23","14",,"8.9","8.8","8.8","8.6","6.1","14.7","2018","1996","36"
"Crow Creek","1045	","Wyoming","SNOTEL","Albany","8330","41.2287","-105.38278","101900090104	","February 14, 2022, end of day ","2-15-2022, 02:15 PM MST","3.5","66","60","71","64","100","47","47","48","48","-2","28","14","6",,"5.3","5.8","4.9","5.5","1.1","8.7","2021","2011","19"
"Crowder Flat","977	","California","SNOTEL","Modoc","5170","41.89318","-120.75202","180102040103	","February 14, 2022, end of day ","2-15-2022, 02:15 PM MST","0.8","26","24","28","27","22","19","17","19","18","-2.2","27","17","6",,"3.1","3.4","2.9","3","0","7.6","2014, 2015, 2018, more","2008","23"
"Crystal Lake","427	","Montana","SNOTEL","Fergus","6050","46.78942","-109.51205","100401030204	","February 14, 2022, end of day ","2-15-2022, 02:15 PM MST","7.8","81","87","85","91","99","51","53","53","54","-0.8","30","31","14",,"9.6","9","9.2","8.6","4.9","14.9","2017","2011","44"
"Css Lab","428	","California","SNOTEL","Nevada","6894","39.32565","-120.36807","180201250602	","February 14, 2022, end of day ","2-15-2022, 02:15 PM MST","25.4","101","99","102","100","92","66","67","68","68","-0.1","47","21","19",,"25.2","25.6","25","25.5","4.1","50.5","2018","2017","39"
"Culebra #2","430	","Colorado","SNOTEL","Costilla","10500","37.20945","-105.19959","130100020902	","February 14, 2022, end of day ","2-15-2022, 02:15 PM MST","5.5","60","64","61","62","100","39","39","38","38","-3.3","7","40","4",,"9.2","8.6","9","8.8","3","15.6","1981","2017","43"
"Cumbres Trestle","431	","Colorado","SNOTEL","Conejos","10040","37.01878","-106.45179","130201020203	","February 14, 2022, end of day ","2-15-2022, 02:15 PM MST","21","112","119","112","114","100","77","80","75","76","2.6","66","15","28",,"18.7","17.7","18.8","18.4","5.2","36","1990","2008","42"
"Currant Creek","432	","Utah","SNOTEL","Wasatch","7915","40.35747","-111.08993","140600040401	","February 14, 2022, end of day ","2-15-2022, 02:15 PM MST","9","120","136","114","118","100","92","105","83","100","1.4","60","18","27",,"7.5","6.6","7.9","7.6","1.3","15.8","1981","2017","44"
"Daisy Peak","919	","Montana","SNOTEL","Meagher","7600","46.66858","-110.33022","100402010106	","February 14, 2022, end of day ","2-15-2022, 02:15 PM MST","5.7","81","85","83","85","100","47","48","47","49","-1","23","21","6",,"7","6.7","6.9","6.7","4","10.6","2017","1997","27"
"Daly Creek","433	","Montana","SNOTEL","Ravalli","5780","46.18367","-113.8533","170102050901	","February 14, 2022, end of day ","2-15-2022, 02:15 PM MST","7.4","94","95","95","100","100","66","71","65","70","0","49","22","18",,"7.9","7.8","7.8","7.4","3.9","15.3","1984","1997","42"
"Daly Lake","434	","Oregon","SNOTEL","Linn","3690","44.52147","-122.08718","170900060101	","February 14, 2022, end of day ","2-15-2022, 02:15 PM MST","10.2","89","144","86","117","64","55","64","56","64","1.5","51","21","22",,"11.4","7.1","11.9","8.7","0","41.4","2003, 2010, 2015, more","2008","42"
"Dana Meadows","DAN	","California","Cooperator Snow Sensors","Tuolumne","9800","37.897","-119.257","180400090102	","February 14, 2022, end of day ","2-15-2022, 02:15 PM MST",,,,,,,,,,,,,,,,"19.9","19.4","20.7","19.8","3.6","45.5","1991","1983","40"
"Daniels-Strawberry","435	","Utah","SNOTEL","Wasatch","8008","40.2953","-111.25677","140600040101	","February 14, 2022, end of day ","2-15-2022, 02:15 PM MST","8.9","75","82","73","79","100","54","63","51","59","-2.3","30","31","14",,"11.9","10.8","12.2","11.2","4.2","25.4","2018","1997","44"
"Darkhorse Lake","436	","Montana","SNOTEL","Beaverhead","8945","45.17367","-113.58448","100200040301	","February 14, 2022, end of day ","2-15-2022, 02:15 PM MST","20","90","92","93","99","100","58","62","58","62","-0.3","46","23","19",,"22.1","21.8","21.6","20.3","12.6","37.1","2001","1997","42"
"Deadman Creek","437	","Montana","SNOTEL","Meagher","6450","46.79279","-110.67545","100301030401	","February 14, 2022, end of day ","2-15-2022, 02:15 PM MST","5.9","75","77","76","77","100","53","53","53","54","-1.8","20","44","12",,"7.9","7.7","7.8","7.7","3.8","13","1987","1978","55"
"Deadman Creek","DDM	","California","Cooperator Snow Sensors","Tuolumne","9250","38.332","-119.653","180400100203	","February 14, 2022, end of day ","2-15-2022, 02:15 PM MST","18.7","98","100","100","100","98","59","62","61","70","0","55","16","17",,"19","18.7","18.7","18.7","2.8","48","1991","2017","34"
"Deadman Hill","438	","Colorado","SNOTEL","Larimer","10220","40.80571","-105.76993","101900070502	","February 14, 2022, end of day ","2-15-2022, 02:15 PM MST","14.5","126","123","124","123","100","68","67","68","66","2.7","84","8","37",,"11.5","11.8","11.7","11.8","5.4","17.2","2003","2014","44"
"Deadwood Summit","439	","Idaho","SNOTEL","Valley","6860","44.54514","-115.5638","170501200401	","February 14, 2022, end of day ","2-15-2022, 02:15 PM MST","26.8","92","94","92","97","100","61","64","61","65","-0.8","46","22","19",,"29.1","28.4","29.1","27.6","12.9","54.6","2001","1997","40"
"Deer Park","923	","Wyoming","SNOTEL","Fremont","9700","42.59076","-108.90273","100800030101	","February 14, 2022, end of day ","2-15-2022, 02:15 PM MST","8","75","87","77","88","100","44","48","44","50","-1.1","30","17","8",,"10.7","9.2","10.4","9.1","6.4","22.9","2021","2017","24"
"Derr.","440	","Oregon","SNOTEL","Wheeler","5850","44.4465","-119.93012","170703040401	","February 14, 2022, end of day ","2-15-2022, 02:15 PM MST","6.8","62","62","60","62","99","46","47","43","47","-4.2","12","37","6",,"10.9","11","11.3","11","4.7","21.8","2018","1983","42"
"Devils Postpile","DPO	","California","Cooperator Snow Sensors","Madera","7569","37.629","-119.085","180400060402	","February 14, 2022, end of day ","2-15-2022, 02:15 PM MST","16",,,"115","113","85",,,"86","111","1.8","60","5","7",,,,"13.9","14.2","0","38.7","2018","2017","11"
"Diamond Lake","442	","Oregon","SNOTEL","Douglas","5280","43.18787","-122.14003","171003010204	","February 14, 2022, end of day ","2-15-2022, 02:15 PM MST","9.4","85","91","81","80","89","58","58","58","54","-2.4","40","25","17",,"11.1","10.3","11.6","11.8","0","28.3","2015","1999","41"
"Diamond Peak","443	","Nevada","SNOTEL","Eureka","8017","39.56361","-115.84421","160600051503	","February 14, 2022, end of day ","2-15-2022, 02:15 PM MST","3.5","80","70","76","76","100","51","50","50","50","-1.1","29","28","12",,"4.4","5","4.6","4.6","0","11.3","2015","1984","39"
"Dills Camp","444	","Utah","SNOTEL","Sanpete","9228","39.04554","-111.46875","140700020201	","February 14, 2022, end of day ","2-15-2022, 02:15 PM MST","6.3","68","80","67","79","98","46","53","44","53","-1.7","26","32","11",,"9.2","7.9","9.4","8","3.2","18.6","2018","1984","43"
"Disaster Peak","445	","Nevada","SNOTEL","Humboldt","6260","41.96737","-118.18934","160402010201	","February 14, 2022, end of day ","2-15-2022, 02:15 PM MST","3.1","55","57","46","53","55","41","40","36","37","-2.7","22","32","9",,"5.6","5.4","6.7","5.8","0","19.3","2003, 2007, 2015","1984","41"
"Dismal Swamp","446	","California","SNOTEL","Modoc","7360","41.99127","-120.18033","171200070304	","February 14, 2022, end of day ","2-15-2022, 02:15 PM MST","19.3","96","97","96","102","97","62","61","62","61","0.3","51","21","22",,"20","19.8","20.2","19","8.8","31.4","1991, 2012","2006","42"
"Divide","448	","Montana","SNOTEL","Madison","7800","44.79317","-112.05645","100200030102	","February 14, 2022, end of day ","2-15-2022, 02:15 PM MST","5.5","80","81","81","81","100","45","47","45","46","-1.3","26","35","11",,"6.9","6.8","6.8","6.8","3.6","11.9","1977","1997","47"
"Divide Peak","449	","Wyoming","SNOTEL","Carbon","8880","41.30398","-107.15241","140500030203	","February 14, 2022, end of day ","2-15-2022, 02:15 PM MST","10.8","81","78","81","79","100","51","50","50","51","-2.8","22","33","10",,"13.3","13.8","13.3","13.6","5.2","20.9","2015","1997","42"
"Dollarhide Summit","450	","Idaho","SNOTEL","Blaine","8420","43.6025","-114.67417","170402190201	","February 14, 2022, end of day ","2-15-2022, 02:15 PM MST","16.2","96","101","95","100","97","62","67","61","67","0","50","21","20",,"16.8","16","17.1","16.2","7.1","32.2","1991","1997","41"
"Dome Lake","451	","Wyoming","SNOTEL","Sheridan","8880","44.57462","-107.29537","100901010102	","February 14, 2022, end of day ","2-15-2022, 02:15 PM MST","6.8","88","88","85","87","100","48","50","47","50","-1","21","35","9",,"7.7","7.7","8","7.8","3.5","11.6","2016","1990","44"
"Dome Mountain","1A19P	","British Columbia","Cooperator Snow Sensors","	","5801","53.61667","-121.01667","	","February 14, 2022, end of day ","2-15-2022, 02:15 PM MST",,,,,,,,,,,,,,,,"22.7","23.3","22.6","22.6","15","33.7","2017","2012","16"
"Donkey Reservoir","452	","Utah","SNOTEL","Wayne","9799","38.2084","-111.47412","140700030305	","February 14, 2022, end of day ","2-15-2022, 02:15 PM MST","3.8","75","78","75","83","100","45","46","45","48","-0.8","31","26","9",,"5.1","4.9","5.1","4.6","1.8","11","2018","1987","37"
"Dorsey Basin","453	","Nevada","SNOTEL","Elko","7903","40.89343","-115.21104","160401010604	","February 14, 2022, end of day ","2-15-2022, 02:15 PM MST","5.9","59","58","56","58","100","39","39","36","39","-4.3","12","39","5",,"10","10.2","10.6","10.2","4.7","23.6","1981","1984","44"
"Draw Creek","454	","Nevada","SNOTEL","Elko","7332","41.661","-115.3234","160401010403	","February 14, 2022, end of day ","2-15-2022, 02:15 PM MST","6.6","78","85","76","92","99","56","52","55","54","-0.6","39","24","16",,"8.5","7.8","8.7","7.2","2.6","20.5","2018","1997","39"
"Dry Bread Pond","455	","Utah","SNOTEL","Cache","8302","41.41289","-111.5377","160102030101	","February 14, 2022, end of day ","2-15-2022, 02:15 PM MST","11.4","85","90","79","83","100","59","59","54","58","-2.4","37","28","17",,"13.4","12.7","14.4","13.8","5.5","28.8","1981","1997","44"
"Dry Creek","1243	","Nevada","SNOTEL","Elko","6555","40.8638","-115.22014","160401010601	","February 14, 2022, end of day ","2-15-2022, 02:15 PM MST","0.8",,,"22","19","24",,,"15","15","-3.5","12","8","2","2nd Lowest",,,"3.6","4.3","0","7.6","2015","2019","9"
"Dry Fork","906	","Utah","SNOTEL","Salt Lake","7093","40.56533","-112.17343","160202040106	","February 14, 2022, end of day ","2-15-2022, 02:15 PM MST","6.2","59","58","60","58","98","39","40","39","41","-4.4","4","27","2","2nd Lowest","10.5","10.6","10.3","10.6","4.7","18.2","2018","2020","28"
"Dry Lake","457	","Colorado","SNOTEL","Routt","8400","40.53397","-106.7813","140500010409	","February 14, 2022, end of day ","2-15-2022, 02:15 PM MST","12.9","82","87","82","84","99","57","58","56","58","-2.4","27","31","12",,"15.7","14.8","15.8","15.3","5.8","24.5","1981","1997","42"
"Dungeness","943	","Washington","SNOTEL","Clallam","4010","47.87224","-123.0788","171100200301	","February 14, 2022, end of day ","2-15-2022, 02:15 PM MST","6","87","94","87","94","73","54","61","53","59","-0.4","43","14","11",,"6.9","6.4","6.9","6.4","0","19.5","2005, 2015","1999","24"
"Dupuyer Creek","458	","Montana","SNOTEL","Teton","5750","48.06341","-112.7573","100302010501	","February 14, 2022, end of day ","2-15-2022, 02:15 PM MST","6.2","103","111","102","109","98","63","66","61","65","0.5","58","17","23",,"6","5.6","6.1","5.7","0.7","15.9","2005","1991","39"
"EF Blacks Fork GS","1163	","Utah","SNOTEL","Summit","9360","40.88472","-110.54056","140401070302	","February 14, 2022, end of day ","2-15-2022, 02:15 PM MST","6.1","77","82","79","88","88","44","49","45","48","-0.8","36","8","5",,"7.9","7.4","7.7","6.9","4.5","12.5","2012","2017","12"
"East Boulder Mine","1105	","Montana","SNOTEL","Sweet Grass","6335","45.50381","-110.08019","100700020701	","February 14, 2022, end of day ","2-15-2022, 02:15 PM MST","3.7","103","95","103","97","100","56","58","57","64","-0.1","46","8","7",,"3.6","3.9","3.6","3.8","0","6.3","2015","2018","14"
"East Creek","2D08P	","British Columbia","Cooperator Snow Sensors","	","6575","50.63333","-116.91667","170101090000	","February 14, 2022, end of day ","2-15-2022, 02:15 PM MST",,,,,,,,,,,,,,,,"26.7","26.9","26.8","26.2","12.1","43.8","2001","1991","40"
"East Palmer","953	","Alaska","SNOTEL","Matanuska-Susitna","230","61.59858","-149.09637","190204020709	","February 14, 2022, end of day ","2-15-2022, 02:15 PM MST","5.8",,,"232","527","100",,,"200","200","4.7","100","1","3","Highest",,,"2.5","1.1","0.7","5.8","2020","2022","3"
"East Rim Divide","460	","Wyoming","SNOTEL","Sublette","7930","43.13097","-110.2023","170401030203	","February 14, 2022, end of day ","2-15-2022, 02:15 PM MST","6.6","80","85","80","84","99","55","59","55","59","-1.3","25","28","10",,"8.3","7.8","8.3","7.9","3.8","15.3","1994","2017","37"
"East Willow Creek","461	","Utah","SNOTEL","Grand","8302","39.31213","-109.53179","140600060205	","February 14, 2022, end of day ","2-15-2022, 02:15 PM MST","6.8","111","119","113","119","100","78","83","78","83","1.1","60","15","22",,"6.1","5.7","6","5.7","1.8","12.5","2006","1993","36"
"Easy Pass","998	","Washington","SNOTEL","Whatcom","5270","48.85933","-121.43895","171100010101	","February 14, 2022, end of day ","2-15-2022, 02:15 PM MST","71.2","110","100","108","100","100","71","69","71","70","0","50","7","7",,"64.6","70.9","66.2","71.2","31.7","81.6","2015","2012","13"
"Ebbetts Pass","462	","California","SNOTEL","Alpine","8661","38.5497","-119.80468","160502010104	","February 14, 2022, end of day ","2-15-2022, 02:15 PM MST","17.5","70","71","71","77","100","45","50","45","50","-5.1","30","31","14",,"25","24.8","24.8","22.6","5","61.9","1991","2017","44"
"Echo Lake","936	","Colorado","SNOTEL","Clear Creek","10600","39.65627","-105.59345","101900020801	","February 14, 2022, end of day ","2-15-2022, 02:15 PM MST","3","75","75","77","77","97","32","33","32","33","-0.9","35","16","9",,"4","4","3.9","3.9","1.1","8.8","2013","2007","24"
"Echo Peak","463	","California","SNOTEL","El Dorado","7653","38.849","-120.0795","160501010303	","February 14, 2022, end of day ","2-15-2022, 02:15 PM MST","25.6","85","81","87","88","92","58","60","60","64","-3.6","46","23","20",,"30.1","31.5","29.4","29.2","7.1","58.2","2012","2017","42"
"Eilertson Meadows","464	","Oregon","SNOTEL","Baker","5510","44.86887","-118.11387","170502030404	","February 14, 2022, end of day ","2-15-2022, 02:15 PM MST","9.2","115","111","111","105","97","88","94","84","88","0.4","54","20","23",,"8","8.3","8.3","8.8","1.4","13.1","1981","1982","42"
"El Diente Peak","465	","Colorado","SNOTEL","Dolores","10000","37.78617","-108.02155","140300020202	","February 14, 2022, end of day ","2-15-2022, 02:15 PM MST","8.4","81","91","82","91","99","54","58","55","58","-0.8","34","24","13",,"10.4","9.2","10.2","9.2","3.5","19.5","1990","2008","36"
"Elbow Lake","910	","Washington","SNOTEL","Whatcom","3040","48.69092","-121.90893","171100040401	","February 14, 2022, end of day ","2-15-2022, 02:15 PM MST","20.6","79","78","79","78","98","52","51","52","49","-5.7","31","19","9",,"26","26.3","26.2","26.3","0","50.9","2015","2008","27"
"Elk Butte","466	","Idaho","SNOTEL","Clearwater","5690","46.83998","-116.12233","170603080701	","February 14, 2022, end of day ","2-15-2022, 02:15 PM MST","22.3","83","86","84","88","100","59","62","59","61","-3.1","28","29","12",,"26.8","25.8","26.5","25.4","12.9","50.6","2005","1997","40"
"Elk Cabin","921	","New Mexico","SNOTEL","Santa Fe","8210","35.7043","-105.80675","130202010102	","February 14, 2022, end of day ","2-15-2022, 02:15 PM MST","3.2","123","107","123","107","100","89","86","91","89","0.2","60","11","15",,"2.6","3","2.6","3","0","5","1999, 2006","2010","26"
"Elk Peak","1106	","Montana","SNOTEL","Meagher","7600","46.4845","-110.7125","100402010203	","February 14, 2022, end of day ","2-15-2022, 02:15 PM MST","14.7",,,"91","97","99",,,"55","62","-0.5","46","8","7",,,,"16.2","15.2","9.5","26.1","2021","2018","14"
"Elk River","467	","Colorado","SNOTEL","Routt","8700","40.84781","-106.96871","140500010206	","February 14, 2022, end of day ","2-15-2022, 02:15 PM MST","12.9","94","94","95","94","99","64","66","63","63","-0.8","42","26","19",,"13.7","13.7","13.6","13.7","5.8","24","1981","1997","44"
"Elkhart Park G.S.","468	","Wyoming","SNOTEL","Sublette","9400","43.00657","-109.75893","140401020103	","February 14, 2022, end of day ","2-15-2022, 02:15 PM MST","5.9","66","69","67","69","98","43","43","43","44","-2.7","10","38","4",,"9","8.6","8.8","8.6","4.7","15.9","1988","1997","42"
"Elkhead Divide","1252	","Colorado","SNOTEL","Routt","8780","40.79649","-107.10122","140500010601	","February 14, 2022, end of day ","2-15-2022, 02:15 PM MST","12.7",,,"88","90","100",,,"62","56","-1.4","40","4","3",,,,"14.4","14.1","9.5","20.6","2018","2017","6"
"Elliot Ridge","1120	","Colorado","SNOTEL","Summit","10520","39.864","-106.4246","140100020602	","February 14, 2022, end of day ","2-15-2022, 02:15 PM MST","16.6","129","137","127","133","100","75","72","76","74","4.1","92","2","12","2nd Highest","12.9","12.1","13.1","12.5","8.8","18","2010","2020","13"
"Emery Creek","469	","Montana","SNOTEL","Flathead","4350","48.43412","-113.93725","170102090703	","February 14, 2022, end of day ","2-15-2022, 02:15 PM MST","11.2","101","103","103","106","100","74","75","74","75","0.6","60","19","27",,"11.1","10.9","10.9","10.6","5.7","18.3","1977","1997","46"
"Emigrant Springs","470	","Oregon","SNOTEL","Umatilla","3800","45.55808","-118.45383","170701030501	","February 14, 2022, end of day ","2-15-2022, 02:15 PM MST","4.2","91","108","79","93","84","61","70","57","67","-0.3","46","23","20",,"4.6","3.9","5.3","4.5","0","15.6","1992, 2015","1989","42"
"Emigrant Summit","471	","Idaho","SNOTEL","Bear Lake","7390","42.36055","-111.56085","160102020206	","February 14, 2022, end of day ","2-15-2022, 02:15 PM MST","10.6","66","68","65","70","99","46","47","44","46","-4.5","8","36","4",,"16.1","15.7","16.4","15.1","8.5","32.4","1992","1997","39"
"Evening Star","472	","Wyoming","SNOTEL","Park","9200","44.65258","-109.78422","100700060301	","February 14, 2022, end of day ","2-15-2022, 02:15 PM MST","18.4","90","92","93","95","100","60","63","61","65","-1","46","22","19",,"20.4","20","19.8","19.4","9.7","34.9","2001","1997","40"
"Exit Glacier","1092	","Alaska","SNOTEL","Kenai Peninsula","400","60.19033","-149.62117","190202020508	","February 14, 2022, end of day ","2-15-2022, 02:15 PM MST","13.4",,,"124","147","100",,,"90","106","4.3","70","4","8",,,,"10.8","9.1","3.2","23.5","2015","2012","11"
"Fallen Leaf","473	","California","SNOTEL","El Dorado","6242","38.93403","-120.0545","160501010401	","February 14, 2022, end of day ","2-15-2022, 02:15 PM MST","7.9","134","141","134","136","77",,,"96","111","2.1","68","14","28",,"5.9","5.6","5.9","5.8","0","15.2","2014, 2015, 2018, more","1993","41"
"Farewell Gap","FRW	","California","Cooperator Snow Sensors","Tulare","9500","36.412","-118.583","180300070202	","February 14, 2022, end of day ","2-15-2022, 02:15 PM MST",,,,,,,,,,,,,,,,,,"32.5","27.4","11.2","66.5","2007","2017","11"
"Farmington","474	","Utah","SNOTEL","Davis","7902","40.97462","-111.80975","160201020502	","February 14, 2022, end of day ","2-15-2022, 02:15 PM MST","16.1","66","69","69","69","97","42","44","43","43","-7.1","23","34","10",,"24.4","23.2","23.4","23.2","11.1","43.7","2018","1997","44"
"Farmington Lower","1054	","Utah","SNOTEL","Davis","6779","40.992","-111.81702","160201020502	","February 14, 2022, end of day ","2-15-2022, 02:15 PM MST","10","64","64","67","69","100","46","53","47","54","-4.5","22","15","5",,"15.6","15.6","15","14.5","5.7","26","2018","2004","19"
"Farnsworth Lake","475	","Utah","SNOTEL","Sevier","9623","38.77246","-111.67662","160300030405	","February 14, 2022, end of day ","2-15-2022, 02:15 PM MST","12.3","101","103","100","100","100","56","55","55","56","0","51","21","21",,"12.2","11.9","12.3","12.3","7.7","17.8","2002","1984","42"
"Fawn Creek","476	","Nevada","SNOTEL","Elko","7031","41.82098","-116.10153","170501040304	","February 14, 2022, end of day ","2-15-2022, 02:15 PM MST","7.4","65","70","63","67","100","43","42","40","40","-3.6","20","34","9",,"11.3","10.6","11.8","11","5.2","23","2018","1984","42"
"Fielding Lake","1268	","Alaska","SNOTEL","Valdez-Cordova","3000","63.20267","-145.6305","190803040302	","February 14, 2022, end of day ","2-15-2022, 02:15 PM MST","7.8",,,"105","113","100",,,"77","80","0.9","71","3","6",,,,"7.4","6.9","4.6","14.7","2017","2020","8"
"Fish Ck","1305	","Idaho","SNOTEL","Blaine","6330","43.55542","-113.71924","170402210401	","February 14, 2022, end of day ","2-15-2022, 02:15 PM MST","8.6",,,"100","100","100",,,,,"0",,"1","1",,,,"8.6","8.6","8.6","8.6","2022","2022","1"
"Fish Creek","477	","Oregon","SNOTEL","Harney","7660","42.70992","-118.6321","171200030107	","February 14, 2022, end of day ","2-15-2022, 02:15 PM MST",,,,,,,,,,,,,,,,"19.3","18.2","19.8","19.2","9.4","34.1","1991","1983","42"
"Fish Lake","478	","Washington","SNOTEL","Kittitas","3430","47.53565","-121.08553","170300010102	","February 14, 2022, end of day ","2-15-2022, 02:15 PM MST","21.2","91","94","89","94","99","69","70","67","69","-1.4","37","25","15",,"23.4","22.5","23.9","22.6","7.8","42","2005","1997, 1999","39"
"Fish Lake Utah","1149	","Utah","SNOTEL","Sevier","8798","38.50455","-111.76693","140700030108	","February 14, 2022, end of day ","2-15-2022, 02:15 PM MST","6.3","95","91","98","102","100","68","69","69","72","0.1","55","6","7",,"6.6","6.9","6.4","6.2","0.6","10.5","2018","2020","12"
"Fish Lk.","479	","Oregon","SNOTEL","Jackson","4660","42.3801","-122.34943","171003070801	","February 14, 2022, end of day ","2-15-2022, 02:15 PM MST","8.5","96","106","91","100","91","69","65","67","65","0","52","20","21",,"8.9","8","9.3","8.5","0","19.1","2015","2008","41"
"Fisher Creek","480	","Montana","SNOTEL","Park","9100","45.06235","-109.94488","100700060202	","February 14, 2022, end of day ","2-15-2022, 02:15 PM MST","20.8","82","87","80","86","100","53","56","52","56","-3.4","22","44","13",,"25.5","23.8","26.1","24.2","13.6","45.9","2001","1997","56"
"Five Points Lake","481	","Utah","SNOTEL","Duchesne","10943","40.71785","-110.46721","140600030701	","February 14, 2022, end of day ","2-15-2022, 02:15 PM MST","10.5","87","97","89","97","96","51","53","52","54","-0.3","41","25","18",,"12.1","10.8","11.8","10.8","6.5","22.2","2002","2005","42"
"Flattop Mtn.","482	","Montana","SNOTEL","Flathead","6300","48.80225","-113.85713","170102070501	","February 14, 2022, end of day ","2-15-2022, 02:15 PM MST","31.3","95","103","93","99","100","64","66","64","66","-0.2","48","28","26",,"32.9","30.5","33.5","31.5","16.8","49.7","2001","1972","53"
"Floe Lake","2C14P	","British Columbia","Cooperator Snow Sensors","	","6923","51.05","-116.13333","170101070000	","February 14, 2022, end of day ","2-15-2022, 02:15 PM MST",,,,,,,,,,,,,,,,"20.7","21.1","20.8","21.5","9.8","32.3","1993","1999","26"
"Flower Mountain","1285	","Alaska","SNOTEL","Haines","2510","59.39617","-136.28123","190103031206	","February 14, 2022, end of day ","2-15-2022, 02:15 PM MST","21",,,"112","111","100",,,"83","91","2","75","2","4","2nd Highest",,,"18.8","19","8.9","31.4","2018","2021","5"
"Fool Creek","1186	","Colorado","SNOTEL","Grand","11150","39.8687","-105.8675","140100010203	","February 14, 2022, end of day ","2-15-2022, 02:15 PM MST","13.1",,,"96","95","100",,,"57","54","-0.7","30","8","4",,,,"13.7","13.8","9.2","18","2013","2014","11"
"Forestdale Creek","1049	","California","SNOTEL","Alpine","8017","38.68245","-119.9597","160502010301	","February 14, 2022, end of day ","2-15-2022, 02:15 PM MST","20.8","89","89","90","91","99","57","62","58","65","-2","44","11","9",,"23.5","23.3","23.1","22.8","7.5","45.5","2012","2017","19"
"Forni Ridge","FRN	","California","Cooperator Snow Sensors","El Dorado","7600","38.805","-120.213","180201290302	","February 14, 2022, end of day ","2-15-2022, 02:15 PM MST",,,,,,,,,,,,,,,,"24.4","24.2","24.3","24.5","1.3","51","2015","1983","34"
"Fort Valley","1121	","Arizona","SNOTEL","Coconino","7350","35.26806","-111.74486","150200150102	","February 14, 2022, end of day ","2-15-2022, 02:15 PM MST","0.3","27",,"27","150","11","10","12","10","12","0.1","54","7","8",,"1.1","0","1.1","0.2","0","9.4","2017, 2018, 2020, more","2010","14"
"Four Trees","FOR	","California","Cooperator Snow Sensors","Plumas","5150","39.813","-121.321","180201210801	","February 14, 2022, end of day ","2-15-2022, 02:15 PM MST","11.6","66","71","69","78","44","41","43","41","43","-3.3","36","28","16",,"17.7","16.4","16.8","14.9","0","41.5","1991, 2015, 2018","1993","43"
"Fourmile Lake","483	","Oregon","SNOTEL","Klamath","5970","42.43933","-122.2288","180102030202	","February 14, 2022, end of day ","2-15-2022, 02:15 PM MST","13.3","68","72","65","65","97","50","47","47","46","-7.2","31","30","13",,"19.5","18.4","20.5","20.5","5.1","34.7","2015","1984","43"
"Franklin Basin","484	","Idaho","SNOTEL","Franklin","8140","42.0505","-111.6012","160102020501	","February 14, 2022, end of day ","2-15-2022, 02:15 PM MST","16.9","89","96","90","94","100","57","60","56","60","-1.1","40","27","18",,"18.9","17.6","18.8","18","8.6","31.9","1981","1997","44"
"Fredonyer Peak","1277	","California","SNOTEL","Lassen","7208","40.68799","-120.60805","180800030304	","February 14, 2022, end of day ","2-15-2022, 02:15 PM MST","7.6",,,"100","103","95",,,"61","80","0.2","60","3","4",,,,"7.6","7.4","1.7","12.9","2018","2019","6"
"Fremont Pass","485	","Colorado","SNOTEL","Summit","11400","39.37991","-106.19681","140100020301	","February 14, 2022, end of day ","2-15-2022, 02:15 PM MST","10.3","88","92","90","95","100","49","50","50","51","-0.5","41","25","17",,"11.7","11.2","11.5","10.8","6.3","18.2","1981","2006","42"
"Frisco Divide","486	","New Mexico","SNOTEL","Catron","8000","33.73646","-108.94502","150400040303	","February 14, 2022, end of day ","2-15-2022, 02:15 PM MST","1.6","67","73","62","73","100","50","52","47","52","-0.6","29","30","12",,"2.4","2.2","2.6","2.2","0","7.4","2000, 2006, 2018, more","1983","42"
"Frohner Meadow","487	","Montana","SNOTEL","Jefferson","6480","46.43545","-112.19277","100301011305	","February 14, 2022, end of day ","2-15-2022, 02:15 PM MST","5.1","91","93","89","91","100","58","62","55","58","-0.5","33","34","17",,"5.6","5.5","5.7","5.6","3.1","10.3","2002","2018","50"
"Frostbite Bottom","641	","Alaska","SNOTEL","Matanuska-Susitna","2700","61.74722","-149.2688","190205051202	","February 14, 2022, end of day ","2-15-2022, 02:15 PM MST","13.6",,,"111","100","100",,,"65","65","0","50","2","2",,,,"12.3","13.6","8.6","14.7","2021","2020","3"
"Fry","488	","Arizona","SNOTEL","Coconino","7200","35.07297","-111.84374","150602020501	","February 14, 2022, end of day ","2-15-2022, 02:15 PM MST","4.4","72","77","71","75","85","54","56","55","56","-1.5","32","29","14",,"6.1","5.7","6.2","5.9","0","15.2","1996, 2006","2010","42"
"Fry Canyon","1262	","Nevada","SNOTEL","Elko","6798","41.57022","-115.93645","160401020101	","February 14, 2022, end of day ","2-15-2022, 02:15 PM MST",,,,,,,,,,,,,,,,,,"3","4","0","6","2015","2017","7"
"GBRC HQ","1221	","Utah","SNOTEL","Sanpete","8801","39.32019","-111.48827","160300040307	","February 14, 2022, end of day ","2-15-2022, 02:15 PM MST","7.7",,,"79","76","100",,,"55","60","-2.4","22","8","3",,,,"9.7","10.1","5.2","14","2018","2017","10"
"GBRC Meadows","1222	","Utah","SNOTEL","Sanpete","9858","39.30229","-111.45383","160300040307	","February 14, 2022, end of day ","2-15-2022, 02:15 PM MST","14.4",,,"104","103","100",,,"63","68","0.4","56","5","6",,,,"13.9","14","8.7","21.5","2018","2017","10"
"Galena","489	","Idaho","SNOTEL","Blaine","7470","43.87722","-114.6725","170402190101	","February 14, 2022, end of day ","2-15-2022, 02:15 PM MST","11.5","93","97","94","98","100","66","72","66","71","-0.2","44","23","18",,"12.3","11.8","12.2","11.7","5.1","26.6","1991","1997","40"
"Galena AK","429	","Alaska","SNOTEL","Yukon-Koyukuk","410","64.69662","-156.71497","190902051104	","February 14, 2022, end of day ","2-15-2022, 02:15 PM MST","6.1",,,"117","120","100",,,"95","103","1","100","1","4","Highest",,,"5.2","5.1","4.4","6.1","2019, 2021","2022","4"
"Galena Summit","490	","Idaho","SNOTEL","Blaine","8780","43.87497","-114.71363","170402190101	","February 14, 2022, end of day ","2-15-2022, 02:15 PM MST","16.5","114","125","115","125","100","75","79","76","80","3.3","75","11","31",,"14.5","13.2","14.3","13.2","6.1","29.2","1991","1997","41"
"Gallegos Peak","491	","New Mexico","SNOTEL","Taos","9800","36.19446","-105.55795","130201010502	","February 14, 2022, end of day ","2-15-2022, 02:15 PM MST","5.8","77","77","77","78","100","54","57","52","56","-1.6","20","34","9",,"7.5","7.5","7.5","7.4","2.2","12.2","2018","1984","42"
"Garden City Summit","1114	","Utah","SNOTEL","Cache","7705","41.9215","-111.4693","160102010106	","February 14, 2022, end of day ","2-15-2022, 02:15 PM MST","11.6","84","97","87","100","100","59","60","60","66","0","50","7","7",,"13.8","11.9","13.3","11.6","8.7","24.1","2018","2017","13"
"Gardner Peak","1066	","Utah","SNOTEL","Washington","8322","37.40083","-113.45988","150100080701	","February 14, 2022, end of day ","2-15-2022, 02:15 PM MST","8","87","82","89","92","100","58","59","59","62","-0.7","47","10","9",,"9.2","9.7","9","8.7","3.6","18","2018","2005","18"
"Garfield R.S.","492	","Idaho","SNOTEL","Blaine","6560","43.6104","-113.9308","170402210301	","February 14, 2022, end of day ","2-15-2022, 02:15 PM MST","7.5","104","110","103","107","100","77","82","74","77","0.5","56","19","24",,"7.2","6.8","7.3","7","2","13","1991","1997","42"
"Garita Peak","1173	","New Mexico","SNOTEL","Rio Arriba","10160","36.005","-106.54838","130202020201	","February 14, 2022, end of day ","2-15-2022, 02:15 PM MST","4.8",,,"86","83","100",,,"70","72","-1","40","4","3",,,,"5.6","5.8","0.8","9.4","2018","2017","6"
"Garver Creek","918	","Montana","SNOTEL","Lincoln","4250","48.97523","-115.81915","170101030202	","February 14, 2022, end of day ","2-15-2022, 02:15 PM MST","8.7","113","114","110","112","99","81","85","81","84","0.9","70","17","38",,"7.7","7.6","7.9","7.8","3.9","14.4","1984","1997","54"
"Gem Pass","GEM	","California","Cooperator Snow Sensors","Mono","10750","37.78","-119.17","180901010301	","February 14, 2022, end of day ","2-15-2022, 02:15 PM MST","20.8","95","87","95","94","93","59","61","61","66","-1.4","42","22","16",,"21.8","23.8","21.9","22.2","2","48.3","1991, 1994","1997","37"
"George Creek","1151	","Utah","SNOTEL","Box Elder","8964","41.91562","-113.41154","170402100401	","February 14, 2022, end of day ","2-15-2022, 02:15 PM MST","13.4","93","99","97","105","100","56","58","58","60","0.6","55","6","7",,"14.4","13.6","13.8","12.8","8.4","21.1","2021","2019","12"
"Gerber Reservoir","945	","Oregon","SNOTEL","Klamath","4890","42.2062","-121.1334","180102040508	","February 14, 2022, end of day ","2-15-2022, 02:15 PM MST","0.4","33","67","33","100","16","17","17","17","18","0","48","13","12",,"1.2","0.6","1.2","0.4","0","5.1","2016, 2018, 2020, more","2008","24"
"Gianelli Meadow","GNL	","California","Cooperator Snow Sensors","Tuolumne","8400","38.205","-119.892","180400100501	","February 14, 2022, end of day ","2-15-2022, 02:15 PM MST","20.8","69","73","73","76","100","45","50","47","52","-6.6","32","26","13",,"30.2","28.5","28.6","27.4","5.3","64.6","2018","2019","38"
"Giant Forest","GNF	","California","Cooperator Snow Sensors","Tulare","6650","36.562","-118.765","180300070402	","February 14, 2022, end of day ","2-15-2022, 02:15 PM MST","3.3","38","42","36","39","39","25","24","23","22","-5.1","21","35","9",,"8.8","7.9","9.1","8.4","0","26","1977, 2003, 2014","1973","44"
"Gin Flat","GIN	","California","Cooperator Snow Sensors","Tuolumne","7050","37.767","-119.773","180400090701	","February 14, 2022, end of day ","2-15-2022, 02:15 PM MST",,,,,,,,,,,,,,,,"16.6","15.2","17.4","16.4","0","43.1","2015","1983","36"
"Giveout","493	","Idaho","SNOTEL","Bear Lake","6930","42.4132","-111.1663","160102010401	","February 14, 2022, end of day ","2-15-2022, 02:15 PM MST","5.7","79","79","74","75","100","60","65","56","59","-1.9","28","30","12",,"7.2","7.2","7.7","7.6","3.6","13.1","2018","1986, 2017","41"
"Glacial Ridge","2050	","Minnesota","SCAN","Polk","1125","47.71667","-96.26667","090203030503	","February 14, 2022, end of day ","2-15-2022, 02:15 PM MST",,,,,,,,,,,,,,,,,,"3.9","2.9","1.1","9.9","2015","2004","11"
"Glen Cove","1057	","Colorado","SNOTEL","Teller","11460","38.87583","-105.07367","110200030201	","February 14, 2022, end of day ","2-15-2022, 02:15 PM MST","1.1","44","39","48","42","65","15","19","16","20","-1.5","29","13","6",,"2.5","2.8","2.3","2.6","0.3","6.4","2013, 2018","2007","18"
"Golconda","1195	","Nevada","SNOTEL","Humboldt","6616","40.88358","-117.58812","160401080102	","February 14, 2022, end of day ","2-15-2022, 02:15 PM MST","4.8",,,"100","100","77",,,"71","80","0","50","6","5",,,,"4.8","4.8","0","10.3","2015","2019","11"
"Gold Axe Camp","1159	","Washington","SNOTEL","Okanogan","5360","48.9516","-118.9864","170200021204	","February 14, 2022, end of day ","2-15-2022, 02:15 PM MST","5.3","70","74","69","74","98","47","45","46","45","-1.9","18","10","3",,"7.6","7.2","7.7","7.2","3.6","12.3","2015","2016","12"
"Gold Basin","1304	","Utah","SNOTEL","San Juan","10076","38.46516","-109.26332","140300050401	","February 14, 2022, end of day ","2-15-2022, 02:15 PM MST","12.2",,,"100","100","100",,,,,"0",,"1","1",,,,"12.2","12.2","12.2","12.2","2022","2022","1"
"Gold Center","494	","Oregon","SNOTEL","Grant","5410","44.7638","-118.3117","170702020202	","February 14, 2022, end of day ","2-15-2022, 02:15 PM MST","8.4","97","105","95","102","100","79","81","77","77","0.2","51","21","22",,"8.7","8","8.8","8.2","3.2","17","1981","2006","42"
"Gold Lake","GOL	","California","Cooperator Snow Sensors","Sierra","6750","39.675","-120.615","180201250202	","February 14, 2022, end of day ","2-15-2022, 02:15 PM MST","26.8","104","107","103","109","100","65","70","64","68","2.1","60","21","31",,"25.7","25","26","24.7","7.3","47.3","2014","1978","51"
"Gold Mountain","1256	","Washington","SNOTEL","Ferry","4390","48.18934","-118.4559","170200011703	","February 14, 2022, end of day ","2-15-2022, 02:15 PM MST","6",,,"77","75","100",,,"60","50","-2","29","6","2","2nd Lowest",,,"7.8","8","1.2","11.4","2015","2021","8"
"Gooseberry RS","495	","Utah","SNOTEL","Sevier","7944","38.80034","-111.68333","160300030405	","February 14, 2022, end of day ","2-15-2022, 02:15 PM MST","4.5","76","83","70","79","100","52","52","45","48","-1.2","14","37","6",,"5.9","5.4","6.4","5.7","3.7","12.4","1992, 1995","1984","43"
"Gooseberry RS Up","1184	","Utah","SNOTEL","Sevier","8396","38.7882","-111.68892","160300030405	","February 14, 2022, end of day ","2-15-2022, 02:15 PM MST","5.3",,,"75","74","100",,,"55","60","-1.9","10","10","2","2nd Lowest",,,"7.1","7.2","5.2","10.9","2018","2016","11"
"Graham Guard Sta.","496	","Idaho","SNOTEL","Elmore","5690","43.9538","-115.27387","170501110303	","February 14, 2022, end of day ","2-15-2022, 02:15 PM MST","9","87","84","85","84","100","70","67","66","67","-1.7","34","28","15",,"10.3","10.7","10.6","10.7","4.1","18.8","2013","1982","42"
"Grand Targhee","1082	","Wyoming","SNOTEL","Teton","9260","43.77933","-110.92783","170402040202	","February 14, 2022, end of day ","2-15-2022, 02:15 PM MST","22.3","73","73","74","75","97","44","46","45","47","-7.4","0","16","1","Lowest","30.7","30.6","30","29.7","22.3","37.2","2022","2008","16"
"Grandview","956	","Alaska","SNOTEL","Kenai Peninsula","1100","60.60832","-149.06313","190203021001	","February 14, 2022, end of day ","2-15-2022, 02:15 PM MST","17.3","88","81","87","81","100","53","50","53","50","-4.1","40","19","13",,"19.6","21.4","19.8","21.4","1.2","34.8","2015","2000","31"
"Granite Creek","497	","Wyoming","SNOTEL","Teton","6770","43.34298","-110.43495","170401030304	","February 14, 2022, end of day ","2-15-2022, 02:15 PM MST","8.7","67","69","69","71","100","50","53","50","54","-3.5","12","31","5",,"12.9","12.7","12.7","12.2","7.2","25.7","2010","1997","35"
"Granite Crk","963	","Alaska","SNOTEL","Southeast Fairbanks","1240","63.94382","-145.39993","190803031306	","February 14, 2022, end of day ","2-15-2022, 02:15 PM MST","8.1","253","270","238","261","100","198","213","193","208","5","100","1","34","Highest","3.2","3","3.4","3.1","1.3","8.1","2019","2022","34"
"Granite Peak","498	","Nevada","SNOTEL","Humboldt","8503","41.67032","-117.56668","160401090601	","February 14, 2022, end of day ","2-15-2022, 02:15 PM MST","12.4","87","86","81","84","100","53","57","48","57","-2.4","37","27","16",,"14.2","14.5","15.4","14.8","4.8","35.5","1991","1984","42"
"Grano Creek","2E07P	","British Columbia","Cooperator Snow Sensors","	","6148","49.55","-118.66667","170200020403	","February 14, 2022, end of day ","2-15-2022, 02:15 PM MST",,,,,,,,,,,,,,,,"13.8","14","14","14","6.9","21.4","2014","1999","24"
"Grassy Lake","499	","Wyoming","SNOTEL","Teton","7265","44.12612","-110.83435","170402030202	","February 14, 2022, end of day ","2-15-2022, 02:15 PM MST",,,,,,,,,,,,,,,,"23.7","23","23.9","23.8","15.2","39.5","1987","1997","41"
"Grave Creek","500	","Montana","SNOTEL","Flathead","4300","48.91453","-114.76663","170101010801	","February 14, 2022, end of day ","2-15-2022, 02:15 PM MST","10.8","91","92","92","92","99","67","69","69","71","-0.9","39","29","19",,"11.9","11.8","11.8","11.7","6.2","18.2","1977","1997","47"
"Grave Springs","501	","Wyoming","SNOTEL","Natrona","8550","43.46643","-107.23977","100902010103	","February 14, 2022, end of day ","2-15-2022, 02:15 PM MST","4.3","74","80","75","83","100","41","43","41","43","-0.9","14","26","5",,"5.8","5.4","5.7","5.2","3.6","9.3","2003","1997","30"
"Grayback","1058	","Colorado","SNOTEL","Rio Grande","11620","37.47033","-106.53783","130100020101	","February 14, 2022, end of day ","2-15-2022, 02:15 PM MST","2.2",,,"24","26","100",,,"17","19","-6.2","0","18","1","Lowest",,,"9.3","8.4","2.2","23.3","2022","2008","18"
